filename,source_scene,bounds,crs,center_lat,center_lon,date_time
Hard_Negative_S2A_MSIL2A_20241204T145731_R039_T20PMC_20241204T175749_15.67_-63.62_image_l2a.tif,S2A_MSIL2A_20241204T145731_R039_T20PMC_20241204T175749,"BoundingBox(left=430935.0, bottom=1730215.0, right=436025.0, top=1735305.0)",32620,15.672073541818344,-63.62072115304595,20241204T145731
Hard_Negative_S2A_MSIL2A_20230703T193911_R042_T09UWB_20241012T022053_55.09_-128.21_image_l2a.tif,S2A_MSIL2A_20230703T193911_R042_T09UWB_20241012T022053,"BoundingBox(left=547715.0, bottom=6102105.0, right=552805.0, top=6107195.0)",32609,55.08604142805135,-128.21258394792196,20230703T193911
Hard_Negative_S2A_MSIL2A_20211201T073251_R049_T38RPQ_20211201T160404_26.16_46.25_image_l2a.tif,S2A_MSIL2A_20211201T073251_R049_T38RPQ_20211201T160404,"BoundingBox(left=622345.0, bottom=2891675.0, right=627435.0, top=2896765.0)",32638,26.16195234092678,46.249593240900424,20211201T073251
Hard_Negative_S2B_MSIL2A_20230821T073619_R092_T36LWN_20241024T093213_-11.76_33.89_image_l2a.tif,S2B_MSIL2A_20230821T073619_R092_T36LWN_20241024T093213,"BoundingBox(left=594195.0, bottom=8697455.0, right=599285.0, top=8702545.0)",32736,-11.75848087561204,33.88785831044136,20230821T073619
Hard_Negative_S2A_MSIL2A_20230906T004711_R102_T54LYH_20241024T033811_-15.52_143.22_image_l2a.tif,S2A_MSIL2A_20230906T004711_R102_T54LYH_20241024T033811,"BoundingBox(left=735645.0, bottom=8280575.0, right=740735.0, top=8285665.0)",32754,-15.518218490264292,143.220529284992,20230906T004711
Hard_Negative_S2B_MSIL2A_20190509T082609_R021_T38VML_20201006T120549_59.05_44.70_image_l2a.tif,S2B_MSIL2A_20190509T082609_R021_T38VML_20201006T120549,"BoundingBox(left=480205.0, bottom=6543425.0, right=485295.0, top=6548515.0)",32638,59.05279089191366,44.69926037416536,20190509T082609
Hard_Negative_S2B_MSIL2A_20211217T070309_R063_T39QXB_20211217T191036_19.76_52.42_image_l2a.tif,S2B_MSIL2A_20211217T070309_R063_T39QXB_20211217T191036,"BoundingBox(left=645905.0, bottom=2182545.0, right=650995.0, top=2187635.0)",32639,19.755897804199787,52.41686502903863,20211217T070309
Hard_Negative_S2B_MSIL2A_20220822T093549_R036_T32QQM_20220823T072439_23.49_11.69_image_l2a.tif,S2B_MSIL2A_20220822T093549_R036_T32QQM_20220823T072439,"BoundingBox(left=772435.0, bottom=2598075.0, right=777525.0, top=2603165.0)",32632,23.492517939106754,11.692408687001477,20220822T093549
Hard_Negative_S2A_MSIL2A_20230316T173051_R055_T15WXM_20240829T082314_64.26_-90.04_image_l2a.tif,S2A_MSIL2A_20230316T173051_R055_T15WXM_20240829T082314,"BoundingBox(left=641025.0, bottom=7126555.0, right=646115.0, top=7131645.0)",32615,64.25790445507903,-90.03653500047275,20230316T173051
Hard_Negative_S2A_MSIL2A_20220414T070621_R106_T39QVA_20220414T225729_18.58_50.16_image_l2a.tif,S2A_MSIL2A_20220414T070621_R106_T39QVA_20220414T225729,"BoundingBox(left=408735.0, bottom=2052415.0, right=413825.0, top=2057505.0)",32639,18.5835785088998,50.159144333986404,20220414T070621
Hard_Negative_S2A_MSIL2A_20220815T103641_R008_T30RYN_20240711T145601_24.35_-0.76_image_l2a.tif,S2A_MSIL2A_20220815T103641_R008_T30RYN_20240711T145601,"BoundingBox(left=724995.0, bottom=2692775.0, right=730085.0, top=2697865.0)",32630,24.354563412860056,-0.7570659436367331,20220815T103641
Hard_Negative_S2B_MSIL2A_20220708T084609_R107_T35QKA_20220708T203422_18.52_25.07_image_l2a.tif,S2B_MSIL2A_20220708T084609_R107_T35QKA_20220708T203422,"BoundingBox(left=293925.0, bottom=2046275.0, right=299015.0, top=2051365.0)",32635,18.52012621985366,25.071970831701353,20220708T084609
Hard_Negative_S2A_MSIL2A_20180902T141041_R110_T21LWL_20201011T073419_-8.96_-56.30_image_l2a.tif,S2A_MSIL2A_20180902T141041_R110_T21LWL_20201011T073419,"BoundingBox(left=574115.0, bottom=9006615.0, right=579205.0, top=9011705.0)",32721,-8.963051374434187,-56.30263120026759,20180902T141041
Hard_Negative_S2A_MSIL2A_20211231T105441_R051_T30RVR_20230127T141133_27.84_-3.54_image_l2a.tif,S2A_MSIL2A_20211231T105441_R051_T30RVR_20230127T141133,"BoundingBox(left=444155.0, bottom=3077035.0, right=449245.0, top=3082125.0)",32630,27.83985196536001,-3.5412962275547866,20211231T105441
Hard_Negative_S2A_MSIL2A_20220102T095411_R079_T32RQQ_20220103T060828_26.97_11.56_image_l2a.tif,S2A_MSIL2A_20220102T095411_R079_T32RQQ_20220103T060828,"BoundingBox(left=751175.0, bottom=2982915.0, right=756265.0, top=2988005.0)",32632,26.96801100567516,11.556049242052179,20220102T095411
Hard_Negative_S2A_MSIL2A_20230219T045841_R119_T45SUR_20240821T002345_32.00_85.42_image_l2a.tif,S2A_MSIL2A_20230219T045841_R119_T45SUR_20240821T002345,"BoundingBox(left=347735.0, bottom=3539435.0, right=352825.0, top=3544525.0)",32645,32.00402618512983,85.41492563246717,20230219T045841
Hard_Negative_S2A_MSIL2A_20180313T053711_R062_T42MYU_20201013T082036_-6.26_71.32_image_l2a.tif,S2A_MSIL2A_20180313T053711_R062_T42MYU_20201013T082036,"BoundingBox(left=753755.0, bottom=9305015.0, right=758845.0, top=9310105.0)",32742,-6.259359572031261,71.31640517747604,20180313T053711
Hard_Negative_S2B_MSIL2A_20210203T020909_R103_T51RYH_20210203T123414_24.81_125.28_image_l2a.tif,S2B_MSIL2A_20210203T020909_R103_T51RYH_20210203T123414,"BoundingBox(left=728295.0, bottom=2743285.0, right=733385.0, top=2748375.0)",32651,24.809902129340927,125.28369790528745,20210203T020909
Hard_Negative_S2A_MSIL2A_20211213T081331_R078_T35LMG_20211213T230555_-12.44_26.29_image_l2a.tif,S2A_MSIL2A_20211213T081331_R078_T35LMG_20211213T230555,"BoundingBox(left=420055.0, bottom=8622715.0, right=425145.0, top=8627805.0)",32735,-12.434823470812798,26.28784194340991,20211213T081331
Hard_Negative_S2A_MSIL2A_20220604T081611_R121_T35MNS_20220604T233616_-3.66_27.24_image_l2a.tif,S2A_MSIL2A_20220604T081611_R121_T35MNS_20220604T233616,"BoundingBox(left=523855.0, bottom=9592815.0, right=528945.0, top=9597905.0)",32735,-3.6608231302966114,27.23773189153667,20220604T081611
Hard_Negative_S2A_MSIL2A_20180126T015651_R117_T50HPG_20201014T084924_-34.56_118.45_image_l2a.tif,S2A_MSIL2A_20180126T015651_R117_T50HPG_20201014T084924,"BoundingBox(left=630795.0, bottom=6172795.0, right=635885.0, top=6177885.0)",32750,-34.555038595534285,118.45336155644016,20180126T015651
Hard_Negative_S2A_MSIL2A_20180104T074311_R092_T38RMS_20201014T031232_27.97_44.43_image_l2a.tif,S2A_MSIL2A_20180104T074311_R092_T38RMS_20201014T031232,"BoundingBox(left=440915.0, bottom=3091275.0, right=446005.0, top=3096365.0)",32638,27.96826301597707,44.42512202311838,20180104T074311
Hard_Negative_S2A_MSIL2A_20220603T070631_R106_T39QUC_20220604T010150_20.58_49.66_image_l2a.tif,S2A_MSIL2A_20220603T070631_R106_T39QUC_20220604T010150,"BoundingBox(left=357425.0, bottom=2274185.0, right=362515.0, top=2279275.0)",32639,20.584394045100076,49.656409379652445,20220603T070631
Hard_Negative_S2A_MSIL2A_20181013T164231_R126_T15RXQ_20201009T110545_31.56_-91.30_image_l2a.tif,S2A_MSIL2A_20181013T164231_R126_T15RXQ_20201009T110545,"BoundingBox(left=658385.0, bottom=3490025.0, right=663475.0, top=3495115.0)",32615,31.55690172718562,-91.30444196139072,20181013T164231
Hard_Negative_S2A_MSIL2A_20230715T033541_R061_T47NLE_20230715T093323_4.15_97.98_image_l2a.tif,S2A_MSIL2A_20230715T033541_R061_T47NLE_20230715T093323,"BoundingBox(left=383795.0, bottom=455915.0, right=388885.0, top=461005.0)",32647,4.147094000405966,97.97595639411182,20230715T033541
Hard_Negative_S2A_MSIL2A_20230111T161631_R140_T17SLR_20230112T130526_31.67_-82.61_image_l2a.tif,S2A_MSIL2A_20230111T161631_R140_T17SLR_20230112T130526,"BoundingBox(left=345035.0, bottom=3502755.0, right=350125.0, top=3507845.0)",32617,31.672868571364212,-82.60790090984054,20230111T161631
Hard_Negative_S2A_MSIL2A_20210720T074621_R135_T38TPQ_20210720T203908_44.89_46.34_image_l2a.tif,S2A_MSIL2A_20210720T074621_R135_T38TPQ_20210720T203908,"BoundingBox(left=603585.0, bottom=4969235.0, right=608675.0, top=4974325.0)",32638,44.89153035452978,46.34404474954121,20210720T074621
Hard_Negative_S2A_MSIL2A_20180102T102421_R065_T31REP_20201014T024640_30.23_3.29_image_l2a.tif,S2A_MSIL2A_20180102T102421_R065_T31REP_20201014T024640,"BoundingBox(left=525475.0, bottom=3342255.0, right=530565.0, top=3347345.0)",32631,30.234441650557244,3.2912126439848213,20180102T102421
Hard_Negative_S2A_MSIL2A_20220612T041601_R090_T47TNG_20220612T234920_41.93_100.04_image_l2a.tif,S2A_MSIL2A_20220612T041601_R090_T47TNG_20220612T234920,"BoundingBox(left=583975.0, bottom=4639655.0, right=589065.0, top=4644745.0)",32647,41.92701725290947,100.04351841410346,20220612T041601
Hard_Negative_S2B_MSIL2A_20211208T233809_R087_T57KWT_20230130T201204_-20.73_159.19_image_l2a.tif,S2B_MSIL2A_20211208T233809_R087_T57KWT_20230130T201204,"BoundingBox(left=517255.0, bottom=7704775.0, right=522345.0, top=7709865.0)",32757,-20.733629772849255,159.19018308907215,20211208T233809
Hard_Negative_S2A_MSIL2A_20221031T140711_R110_T19GFQ_20221101T013605_-41.10_-67.05_image_l2a.tif,S2A_MSIL2A_20221031T140711_R110_T19GFQ_20221101T013605,"BoundingBox(left=660815.0, bottom=5445375.0, right=665905.0, top=5450465.0)",32719,-41.10358388245318,-67.05457778813535,20221031T140711
Hard_Negative_S2A_MSIL2A_20220124T071201_R106_T39QUA_20220124T194319_18.61_49.37_image_l2a.tif,S2A_MSIL2A_20220124T071201_R106_T39QUA_20220124T194319,"BoundingBox(left=325595.0, bottom=2055985.0, right=330685.0, top=2061075.0)",32639,18.61067181998341,49.37104831210614,20220124T071201
Hard_Negative_S2B_MSIL2A_20180526T143009_R053_T20LNK_20201012T144011_-13.66_-62.72_image_l2a.tif,S2B_MSIL2A_20180526T143009_R053_T20LNK_20201012T144011,"BoundingBox(left=528235.0, bottom=8487335.0, right=533325.0, top=8492425.0)",32720,-13.65979482164999,-62.71538812338282,20180526T143009
Hard_Negative_S2B_MSIL2A_20220222T082839_R021_T35QQA_20220228T125834_18.69_29.28_image_l2a.tif,S2B_MSIL2A_20220222T082839_R021_T35QQA_20220228T125834,"BoundingBox(left=738415.0, bottom=2065455.0, right=743505.0, top=2070545.0)",32635,18.689391049795155,29.284720586175403,20220222T082839
Hard_Negative_S2A_MSIL2A_20211105T085141_R107_T35RML_20211105T185442_27.56_26.91_image_l2a.tif,S2A_MSIL2A_20211105T085141_R107_T35RML_20211105T185442,"BoundingBox(left=488875.0, bottom=3045555.0, right=493965.0, top=3050645.0)",32635,27.556694450023368,26.913083892520042,20211105T085141
Hard_Negative_S2A_MSIL2A_20230722T182921_R027_T11TQN_20241018T064432_47.36_-114.09_image_l2a.tif,S2A_MSIL2A_20230722T182921_R027_T11TQN_20241018T064432,"BoundingBox(left=717335.0, bottom=5247255.0, right=722425.0, top=5252345.0)",32611,47.364643509044704,-114.0878271471565,20230722T182921
Hard_Negative_S2A_MSIL2A_20210610T012721_R131_T52KGF_20210611T052046_-17.85_131.26_image_l2a.tif,S2A_MSIL2A_20210610T012721_R131_T52KGF_20210611T052046,"BoundingBox(left=737405.0, bottom=8022495.0, right=742495.0, top=8027585.0)",32752,-17.849239373697976,131.26422129893265,20210610T012721
Hard_Negative_S2A_MSIL2A_20220412T113321_R080_T28RFT_20220413T095403_29.27_-13.33_image_l2a.tif,S2A_MSIL2A_20220412T113321_R080_T28RFT_20220413T095403,"BoundingBox(left=659315.0, bottom=3237055.0, right=664405.0, top=3242145.0)",32628,29.274953516624244,-13.333880720860625,20220412T113321
Hard_Negative_S2A_MSIL2A_20200210T010721_R045_T53KPR_20201001T134156_-22.36_136.35_image_l2a.tif,S2A_MSIL2A_20200210T010721_R045_T53KPR_20201001T134156,"BoundingBox(left=636885.0, bottom=7524175.0, right=641975.0, top=7529265.0)",32753,-22.359802489980808,136.35414966832215,20200210T010721
Hard_Negative_S2B_MSIL2A_20230211T044929_R076_T45QVD_20230211T191538_21.38_86.45_image_l2a.tif,S2B_MSIL2A_20230211T044929_R076_T45QVD_20230211T191538,"BoundingBox(left=440685.0, bottom=2361975.0, right=445775.0, top=2367065.0)",32645,21.381957665140156,86.45235768581966,20230211T044929
Hard_Negative_S2B_MSIL2A_20200928T074709_R135_T39VWD_20201001T003605_57.67_51.13_image_l2a.tif,S2B_MSIL2A_20200928T074709_R135_T39VWD_20201001T003605,"BoundingBox(left=505335.0, bottom=6389535.0, right=510425.0, top=6394625.0)",32639,57.670901171753314,51.13212968836811,20200928T074709
Hard_Negative_S2A_MSIL2A_20230720T074621_R135_T36MVA_20241010T100523_-3.94_32.82_image_l2a.tif,S2A_MSIL2A_20230720T074621_R135_T36MVA_20241010T100523,"BoundingBox(left=477055.0, bottom=9562115.0, right=482145.0, top=9567205.0)",32736,-3.938574684468532,32.81623893444494,20230720T074621
Hard_Negative_S2A_MSIL2A_20200831T073621_R092_T36LXP_20200919T052643_-10.53_34.09_image_l2a.tif,S2A_MSIL2A_20200831T073621_R092_T36LXP_20200919T052643,"BoundingBox(left=617005.0, bottom=8832955.0, right=622095.0, top=8838045.0)",32736,-10.53252732361771,34.092594845449156,20200831T073621
Hard_Negative_S2A_MSIL2A_20230527T233821_R087_T57KWS_20240904T201816_-21.41_159.55_image_l2a.tif,S2A_MSIL2A_20230527T233821_R087_T57KWS_20240904T201816,"BoundingBox(left=554315.0, bottom=7630335.0, right=559405.0, top=7635425.0)",32757,-21.40544533783973,159.54859808396523,20230527T233821
Hard_Negative_S2B_MSIL2A_20220328T080609_R078_T36PXC_20240601T085404_15.93_34.41_image_l2a.tif,S2B_MSIL2A_20220328T080609_R078_T36PXC_20240601T085404,"BoundingBox(left=648475.0, bottom=1759655.0, right=653565.0, top=1764745.0)",32636,15.934492375935339,34.410935003977116,20220328T080609
Hard_Negative_S2A_MSIL2A_20220808T072631_R049_T38RNR_20240716T030044_27.90_45.64_image_l2a.tif,S2A_MSIL2A_20220808T072631_R049_T38RNR_20240716T030044,"BoundingBox(left=560895.0, bottom=3083555.0, right=565985.0, top=3088645.0)",32638,27.898265076890887,45.64461685378865,20220808T072631
Hard_Negative_S2B_MSIL2A_20211010T105859_R094_T29QNB_20211010T213311_19.43_-8.19_image_l2a.tif,S2B_MSIL2A_20211010T105859_R094_T29QNB_20211010T213311,"BoundingBox(left=582695.0, bottom=2146555.0, right=587785.0, top=2151645.0)",32629,19.434443970119908,-8.188005238474688,20211010T105859
Hard_Negative_S2A_MSIL2A_20220316T015621_R117_T51JTH_20240601T203805_-29.62_120.67_image_l2a.tif,S2A_MSIL2A_20220316T015621_R117_T51JTH_20240601T203805,"BoundingBox(left=271735.0, bottom=6717995.0, right=276825.0, top=6723085.0)",32751,-29.624598535458894,120.66871480823082,20220316T015621
Hard_Negative_S2A_MSIL2A_20220528T082611_R021_T34KBV_20220529T070448_-23.02_19.04_image_l2a.tif,S2A_MSIL2A_20220528T082611_R021_T34KBV_20220529T070448,"BoundingBox(left=296915.0, bottom=7450315.0, right=302005.0, top=7455405.0)",32734,-23.020600439899113,19.04312412241361,20220528T082611
Hard_Negative_S2B_MSIL2A_20180613T135109_R024_T22MDC_20201027T001340_-2.53_-51.08_image_l2a.tif,S2B_MSIL2A_20180613T135109_R024_T22MDC_20201027T001340,"BoundingBox(left=489075.0, bottom=9718355.0, right=494165.0, top=9723445.0)",32722,-2.5250864510253734,-51.07538202982653,20180613T135109
Hard_Negative_S2B_MSIL2A_20220819T060639_R134_T44VMP_20240703T225603_61.33_80.72_image_l2a.tif,S2B_MSIL2A_20220819T060639_R134_T44VMP_20240703T225603,"BoundingBox(left=482375.0, bottom=6796625.0, right=487465.0, top=6801715.0)",32644,61.326331821810314,80.71825399647639,20220819T060639
Hard_Negative_S2B_MSIL2A_20220827T070619_R106_T39RUH_20240708T105622_25.16_49.48_image_l2a.tif,S2B_MSIL2A_20220827T070619_R106_T39RUH_20240708T105622,"BoundingBox(left=343995.0, bottom=2780895.0, right=349085.0, top=2785985.0)",32639,25.159171497959044,49.47737745614662,20220827T070619
Hard_Negative_S2A_MSIL2A_20220709T154951_R054_T18TXP_20220712T004337_43.33_-73.04_image_l2a.tif,S2A_MSIL2A_20220709T154951_R054_T18TXP_20220712T004337,"BoundingBox(left=656385.0, bottom=4797295.0, right=661475.0, top=4802385.0)",32618,43.33460492937324,-73.03947744998732,20220709T154951
Hard_Negative_S2A_MSIL2A_20221027T105141_R051_T30RWS_20240802T072159_28.76_-2.83_image_l2a.tif,S2A_MSIL2A_20221027T105141_R051_T30RWS_20240802T072159,"BoundingBox(left=513715.0, bottom=3178505.0, right=518805.0, top=3183595.0)",32630,28.756770427053382,-2.8334422570309448,20221027T105141
Hard_Negative_S2A_MSIL2A_20211206T050201_R119_T44PMR_20211206T171311_9.75_80.31_image_l2a.tif,S2A_MSIL2A_20211206T050201_R119_T44PMR_20211206T171311,"BoundingBox(left=421355.0, bottom=1075535.0, right=426445.0, top=1080625.0)",32644,9.75208078854148,80.30616246809679,20211206T050201
Hard_Negative_S2B_MSIL2A_20220611T103629_R008_T30QVE_20220612T075820_17.61_-3.49_image_l2a.tif,S2B_MSIL2A_20220611T103629_R008_T30QVE_20220612T075820,"BoundingBox(left=445535.0, bottom=1944725.0, right=450625.0, top=1949815.0)",32630,17.6114863514517,-3.4893846174571665,20220611T103629
Hard_Negative_S2A_MSIL2A_20200206T161431_R140_T16PCC_20201001T015528_16.07_-88.46_image_l2a.tif,S2A_MSIL2A_20200206T161431_R140_T16PCC_20201001T015528,"BoundingBox(left=341705.0, bottom=1775125.0, right=346795.0, top=1780215.0)",32616,16.074008516794066,-88.45612850329877,20200206T161431
Hard_Negative_S2B_MSIL2A_20211113T090129_R007_T34QFH_20211113T195220_19.88_22.45_image_l2a.tif,S2B_MSIL2A_20211113T090129_R007_T34QFH_20211113T195220,"BoundingBox(left=649435.0, bottom=2196455.0, right=654525.0, top=2201545.0)",32634,19.881290385359883,22.451689131316922,20211113T090129
Hard_Negative_S2A_MSIL2A_20220102T095411_R079_T32RQT_20220103T063444_29.29_11.57_image_l2a.tif,S2A_MSIL2A_20220102T095411_R079_T32RQT_20220103T063444,"BoundingBox(left=747495.0, bottom=3240055.0, right=752585.0, top=3245145.0)",32632,29.287611493672543,11.573857433404065,20220102T095411
Hard_Negative_S2A_MSIL2A_20180109T101401_R022_T31PDS_20201014T042325_14.92_2.97_image_l2a.tif,S2A_MSIL2A_20180109T101401_R022_T31PDS_20201014T042325,"BoundingBox(left=494335.0, bottom=1647175.0, right=499425.0, top=1652265.0)",32631,14.922187898712714,2.970986708831499,20180109T101401
Hard_Negative_S2B_MSIL2A_20221015T073859_R092_T37QGD_20240801T233022_21.32_41.15_image_l2a.tif,S2B_MSIL2A_20221015T073859_R092_T37QGD_20240801T233022,"BoundingBox(left=720115.0, bottom=2356735.0, right=725205.0, top=2361825.0)",32637,21.32179891611524,41.14669545878421,20221015T073859
Hard_Negative_S2A_MSIL2A_20211210T112451_R037_T28QGM_20211210T211807_23.81_-12.95_image_l2a.tif,S2A_MSIL2A_20211210T112451_R037_T28QGM_20211210T211807,"BoundingBox(left=706495.0, bottom=2632615.0, right=711585.0, top=2637705.0)",32628,23.81412593528995,-12.947996812409272,20211210T112451
Hard_Negative_S2A_MSIL2A_20210801T221941_R029_T60KYF_20210802T104249_-17.75_179.12_image_l2a.tif,S2A_MSIL2A_20210801T221941_R029_T60KYF_20210802T104249,"BoundingBox(left=722335.0, bottom=8033455.0, right=727425.0, top=8038545.0)",32760,-17.75183996702643,179.12092112331555,20210801T221941
Hard_Negative_S2B_MSIL2A_20180106T010719_R045_T53JMM_20201014T034342_-25.68_134.03_image_l2a.tif,S2B_MSIL2A_20180106T010719_R045_T53JMM_20201014T034342,"BoundingBox(left=400065.0, bottom=7156615.0, right=405155.0, top=7161705.0)",32753,-25.682127895625612,134.02947717834118,20180106T010719
Hard_Negative_S2B_MSIL2A_20220712T082609_R021_T35PNS_20220713T192649_15.10_27.74_image_l2a.tif,S2B_MSIL2A_20220712T082609_R021_T35PNS_20220713T192649,"BoundingBox(left=576635.0, bottom=1667035.0, right=581725.0, top=1672125.0)",32635,15.100549215274613,27.73683730410172,20220712T082609
Hard_Negative_S2A_MSIL2A_20230617T105621_R094_T30SVB_20241003T031131_33.04_-3.73_image_l2a.tif,S2A_MSIL2A_20230617T105621_R094_T30SVB_20241003T031131,"BoundingBox(left=429035.0, bottom=3653555.0, right=434125.0, top=3658645.0)",32630,33.041260682176926,-3.732764203040154,20230617T105621
Hard_Negative_S2A_MSIL2A_20220718T075621_R035_T37SER_20220718T205021_31.65_39.99_image_l2a.tif,S2A_MSIL2A_20220718T075621_R035_T37SER_20220718T205021,"BoundingBox(left=591635.0, bottom=3499905.0, right=596725.0, top=3504995.0)",32637,31.653422525389075,39.99335062875301,20220718T075621
Hard_Negative_S2A_MSIL2A_20211208T090351_R007_T34RGP_20211209T020727_25.94_23.04_image_l2a.tif,S2A_MSIL2A_20211208T090351_R007_T34RGP_20211209T020727,"BoundingBox(left=701305.0, bottom=2868505.0, right=706395.0, top=2873595.0)",32634,25.943844985501613,23.035689702972856,20211208T090351
Hard_Negative_S2B_MSIL2A_20220530T134209_R124_T22LCJ_20240613T162422_-15.38_-51.96_image_l2a.tif,S2B_MSIL2A_20220530T134209_R124_T22LCJ_20240613T162422,"BoundingBox(left=394165.0, bottom=8296515.0, right=399255.0, top=8301605.0)",32722,-15.383194506638395,-51.96246939270365,20220530T134209
Hard_Negative_S2A_MSIL2A_20211222T084351_R064_T35QND_20211223T112331_20.98_27.91_image_l2a.tif,S2A_MSIL2A_20211222T084351_R064_T35QND_20211223T112331,"BoundingBox(left=591885.0, bottom=2317515.0, right=596975.0, top=2322605.0)",32635,20.978713310748326,27.90844920937628,20211222T084351
Hard_Negative_S2A_MSIL2A_20210610T074611_R135_T35KQQ_20210623T112841_-23.00_29.58_image_l2a.tif,S2A_MSIL2A_20210610T074611_R135_T35KQQ_20210623T112841,"BoundingBox(left=761935.0, bottom=7451855.0, right=767025.0, top=7456945.0)",32735,-22.997763553433302,29.580109381319655,20210610T074611
Hard_Negative_S2B_MSIL2A_20210815T021609_R003_T50MNV_20210815T112821_-5.08_117.03_image_l2a.tif,S2B_MSIL2A_20210815T021609_R003_T50MNV_20210815T112821,"BoundingBox(left=500435.0, bottom=9435795.0, right=505525.0, top=9440885.0)",32750,-5.081379666207294,117.02688628099118,20210815T021609
Hard_Negative_S2A_MSIL2A_20230511T160821_R140_T17TNJ_20230512T022031_43.36_-80.08_image_l2a.tif,S2A_MSIL2A_20230511T160821_R140_T17TNJ_20230512T022031,"BoundingBox(left=572015.0, bottom=4798395.0, right=577105.0, top=4803485.0)",32617,43.357614289788,-80.07988348474814,20230511T160821
Hard_Negative_S2A_MSIL2A_20211121T142731_R053_T19HCS_20211121T232646_-38.91_-71.13_image_l2a.tif,S2A_MSIL2A_20211121T142731_R053_T19HCS_20211121T232646,"BoundingBox(left=312675.0, bottom=5688575.0, right=317765.0, top=5693665.0)",32719,-38.90938210331674,-71.13111037625377,20211121T142731
Hard_Negative_S2A_MSIL2A_20200612T105631_R094_T32WNT_20200827T021800_64.88_10.92_image_l2a.tif,S2A_MSIL2A_20200612T105631_R094_T32WNT_20200827T021800,"BoundingBox(left=588455.0, bottom=7194035.0, right=593545.0, top=7199125.0)",32632,64.88104389660143,10.9214750633409,20200612T105631
Hard_Negative_S2B_MSIL2A_20190914T024549_R132_T49MCV_20201004T130617_-0.84_109.78_image_l2a.tif,S2B_MSIL2A_20190914T024549_R132_T49MCV_20201004T130617,"BoundingBox(left=361145.0, bottom=9904335.0, right=366235.0, top=9909425.0)",32749,-0.8422915446545157,109.77497874794435,20190914T024549
Hard_Negative_S2B_MSIL2A_20180810T144729_R139_T19LDG_20201011T000046_-11.84_-69.14_image_l2a.tif,S2B_MSIL2A_20180810T144729_R139_T19LDG_20201011T000046,"BoundingBox(left=482515.0, bottom=8688995.0, right=487605.0, top=8694085.0)",32719,-11.836337172189602,-69.137161286236,20180810T144729
Hard_Negative_S2A_MSIL2A_20211211T010731_R045_T53JLG_20211211T191322_-30.35_133.37_image_l2a.tif,S2A_MSIL2A_20211211T010731_R045_T53JLG_20211211T191322,"BoundingBox(left=341095.0, bottom=6638715.0, right=346185.0, top=6643805.0)",32753,-30.350439295050705,133.37316517725324,20211211T010731
Hard_Negative_S2A_MSIL2A_20210817T052651_R105_T43RGN_20210817T151420_29.41_77.76_image_l2a.tif,S2A_MSIL2A_20210817T052651_R105_T43RGN_20210817T151420,"BoundingBox(left=764975.0, bottom=3254485.0, right=770065.0, top=3259575.0)",32643,29.414111656950137,77.75712829078938,20210817T052651
Hard_Negative_S2A_MSIL2A_20220629T090611_R050_T34REQ_20240630T082504_26.87_21.31_image_l2a.tif,S2A_MSIL2A_20220629T090611_R050_T34REQ_20240630T082504,"BoundingBox(left=527835.0, bottom=2970005.0, right=532925.0, top=2975095.0)",32634,26.874301391100154,21.30586809132201,20220629T090611
Hard_Negative_S2A_MSIL2A_20220902T081621_R121_T34KGV_20220902T194736_-23.02_23.32_image_l2a.tif,S2A_MSIL2A_20220902T081621_R121_T34KGV_20220902T194736,"BoundingBox(left=735575.0, bottom=7449915.0, right=740665.0, top=7455005.0)",32734,-23.01925379545112,23.323429482218465,20220902T081621
Hard_Negative_S2A_MSIL2A_20230718T140711_R110_T21MVN_20241017T204323_-6.65_-57.67_image_l2a.tif,S2A_MSIL2A_20230718T140711_R110_T21MVN_20241017T204323,"BoundingBox(left=423885.0, bottom=9262795.0, right=428975.0, top=9267885.0)",32721,-6.645953075285746,-57.66558442173711,20230718T140711
Hard_Negative_S2A_MSIL2A_20230429T184921_R113_T11TMN_20240902T091258_47.15_-118.01_image_l2a.tif,S2A_MSIL2A_20230429T184921_R113_T11TMN_20240902T091258,"BoundingBox(left=421095.0, bottom=5220215.0, right=426185.0, top=5225305.0)",32611,47.15390562594576,-118.00731332404743,20230429T184921
Hard_Negative_S2B_MSIL2A_20220405T040539_R047_T46QGG_20240604T213055_19.74_95.10_image_l2a.tif,S2B_MSIL2A_20220405T040539_R047_T46QGG_20240604T213055,"BoundingBox(left=717615.0, bottom=2181655.0, right=722705.0, top=2186745.0)",32646,19.741138040107984,95.10089897818358,20220405T040539
Hard_Negative_S2A_MSIL2A_20211124T074241_R092_T38RLR_20211124T165523_27.63_43.49_image_l2a.tif,S2A_MSIL2A_20211124T074241_R092_T38RLR_20211124T165523,"BoundingBox(left=348675.0, bottom=3054795.0, right=353765.0, top=3059885.0)",32638,27.631940019014444,43.49200424296848,20211124T074241
Hard_Negative_S2B_MSIL2A_20200828T163839_R126_T18WWA_20200907T114818_67.78_-73.63_image_l2a.tif,S2B_MSIL2A_20200828T163839_R126_T18WWA_20200907T114818,"BoundingBox(left=555415.0, bottom=7516065.0, right=560505.0, top=7521155.0)",32618,67.77667386943264,-73.6266279558616,20200828T163839
Hard_Negative_S2A_MSIL2A_20210812T025551_R032_T48MXV_20210812T133224_-5.41_106.51_image_l2a.tif,S2A_MSIL2A_20210812T025551_R032_T48MXV_20210812T133224,"BoundingBox(left=664215.0, bottom=9398935.0, right=669305.0, top=9404025.0)",32748,-5.412966853312858,106.50512770912603,20210812T025551
Hard_Negative_S2B_MSIL2A_20220721T085559_R007_T34QEH_20220723T160511_20.20_21.17_image_l2a.tif,S2B_MSIL2A_20220721T085559_R007_T34QEH_20220723T160511,"BoundingBox(left=515105.0, bottom=2230575.0, right=520195.0, top=2235665.0)",32634,20.195457095435152,21.168942505992668,20220721T085559
Hard_Negative_S2A_MSIL2A_20211201T173711_R055_T13SGT_20230128T202546_33.35_-102.32_image_l2a.tif,S2A_MSIL2A_20211201T173711_R055_T13SGT_20230128T202546,"BoundingBox(left=746685.0, bottom=3690835.0, right=751775.0, top=3695925.0)",32613,33.35078361435839,-102.32176864203153,20211201T173711
Hard_Negative_S2B_MSIL2A_20220123T083139_R021_T35QPV_20220123T234417_17.13_28.74_image_l2a.tif,S2B_MSIL2A_20220123T083139_R021_T35QPV_20220123T234417,"BoundingBox(left=682765.0, bottom=1892095.0, right=687855.0, top=1897185.0)",32635,17.128858135584125,28.741902434284885,20220123T083139
Hard_Negative_S2A_MSIL2A_20220426T110631_R137_T29QLB_20240610T082245_19.68_-10.41_image_l2a.tif,S2A_MSIL2A_20220426T110631_R137_T29QLB_20240610T082245,"BoundingBox(left=350115.0, bottom=2174435.0, right=355205.0, top=2179525.0)",32629,19.682713665853004,-10.405632432476441,20220426T110631
Hard_Negative_S2A_MSIL2A_20210826T073611_R092_T37NCB_20210826T215758_1.15_37.52_image_l2a.tif,S2A_MSIL2A_20210826T073611_R092_T37NCB_20210826T215758,"BoundingBox(left=332635.0, bottom=124285.0, right=337725.0, top=129375.0)",32637,1.14708344092344,37.51867521612661,20210826T073611
Hard_Negative_S2B_MSIL2A_20190418T104029_R008_T32VNL_20201007T034407_58.64_9.19_image_l2a.tif,S2B_MSIL2A_20190418T104029_R008_T32VNL_20201007T034407,"BoundingBox(left=508695.0, bottom=6497625.0, right=513785.0, top=6502715.0)",32632,58.6416706235468,9.193661414302607,20190418T104029
Hard_Negative_S2B_MSIL2A_20200729T002059_R116_T55KFA_20200818T005428_-17.72_148.47_image_l2a.tif,S2B_MSIL2A_20200729T002059_R116_T55KFA_20200818T005428,"BoundingBox(left=653215.0, bottom=8037435.0, right=658305.0, top=8042525.0)",32755,-17.72184501425106,148.46892593892125,20200729T002059
Hard_Negative_S2A_MSIL2A_20220724T115231_R123_T28RCU_20220726T082559_30.03_-16.05_image_l2a.tif,S2A_MSIL2A_20220724T115231_R123_T28RCU_20220726T082559,"BoundingBox(left=396025.0, bottom=3320255.0, right=401115.0, top=3325345.0)",32628,30.032022099695038,-16.051972506111778,20220724T115231
Hard_Negative_S2A_MSIL2A_20211123T081241_R078_T35MRV_20211123T205520_-0.91_29.86_image_l2a.tif,S2A_MSIL2A_20211123T081241_R078_T35MRV_20211123T205520,"BoundingBox(left=815405.0, bottom=9896515.0, right=820495.0, top=9901605.0)",32735,-0.9120932808051876,29.856504729315628,20211123T081241
Hard_Negative_S2B_MSIL2A_20221105T103119_R108_T30QZH_20221106T104553_19.86_-0.00_image_l2a.tif,S2B_MSIL2A_20221105T103119_R108_T30QZH_20221106T104553,"BoundingBox(left=811575.0, bottom=2196355.0, right=816665.0, top=2201445.0)",32630,19.86104710286839,-0.0007723109708610669,20221105T103119
Hard_Negative_S2A_MSIL2A_20220803T063641_R120_T43VDK_20240716T105816_62.32_74.35_image_l2a.tif,S2A_MSIL2A_20220803T063641_R120_T43VDK_20240716T105816,"BoundingBox(left=463955.0, bottom=6907215.0, right=469045.0, top=6912305.0)",32643,62.317867524914774,74.35362067733223,20220803T063641
Hard_Negative_S2B_MSIL2A_20230529T161829_R040_T17UMP_20240906T150720_48.57_-81.47_image_l2a.tif,S2B_MSIL2A_20230529T161829_R040_T17UMP_20240906T150720,"BoundingBox(left=462915.0, bottom=5377535.0, right=468005.0, top=5382625.0)",32617,48.57285267828394,-81.46825407346537,20230529T161829
Hard_Negative_S2B_MSIL2A_20220920T164909_R026_T15SXV_20240730T162026_35.23_-91.81_image_l2a.tif,S2B_MSIL2A_20220920T164909_R026_T15SXV_20240730T162026,"BoundingBox(left=605285.0, bottom=3897095.0, right=610375.0, top=3902185.0)",32615,35.2340271056781,-91.81495942965157,20220920T164909
Hard_Negative_S2A_MSIL2A_20200630T065631_R063_T40SCD_20200824T160814_34.68_54.93_image_l2a.tif,S2A_MSIL2A_20200630T065631_R063_T40SCD_20200824T160814,"BoundingBox(left=308145.0, bottom=3836795.0, right=313235.0, top=3841885.0)",32640,34.67855391416809,54.93360798737574,20200630T065631
Hard_Negative_S2A_MSIL2A_20220926T000231_R030_T56KMB_20220926T123859_-21.20_152.52_image_l2a.tif,S2A_MSIL2A_20220926T000231_R030_T56KMB_20220926T123859,"BoundingBox(left=447675.0, bottom=7653275.0, right=452765.0, top=7658365.0)",32756,-21.198391885983874,152.52038202766255,20220926T000231
Hard_Negative_S2A_MSIL2A_20230925T105801_R094_T29SQR_20241027T083256_31.65_-6.22_image_l2a.tif,S2A_MSIL2A_20230925T105801_R094_T29SQR_20241027T083256,"BoundingBox(left=760695.0, bottom=3502195.0, right=765785.0, top=3507285.0)",32629,31.64774776366641,-6.224121541101571,20230925T105801
Hard_Negative_S2B_MSIL2A_20191210T211909_R100_T04QDK_20201003T032217_21.99_-159.45_image_l2a.tif,S2B_MSIL2A_20191210T211909_R100_T04QDK_20201003T032217,"BoundingBox(left=451245.0, bottom=2429565.0, right=456335.0, top=2434655.0)",32604,21.992910010255272,-159.44765932428072,20191210T211909
Hard_Negative_S2B_MSIL2A_20210912T031539_R118_T48MTA_20210912T133622_-4.55_103.00_image_l2a.tif,S2B_MSIL2A_20210912T031539_R118_T48MTA_20210912T133622,"BoundingBox(left=275675.0, bottom=9494035.0, right=280765.0, top=9499125.0)",32748,-4.551724018412775,103.00105790566131,20210912T031539
Hard_Negative_S2B_MSIL2A_20220123T083139_R021_T35NKE_20220124T021154_3.73_25.04_image_l2a.tif,S2B_MSIL2A_20220123T083139_R021_T35NKE_20220124T021154,"BoundingBox(left=279675.0, bottom=409585.0, right=284765.0, top=414675.0)",32635,3.7264247602270117,25.0391288354443,20220123T083139
Hard_Negative_S2A_MSIL2A_20210124T112351_R037_T28QGM_20210124T231719_24.01_-12.29_image_l2a.tif,S2A_MSIL2A_20210124T112351_R037_T28QGM_20210124T231719,"BoundingBox(left=773115.0, bottom=2655685.0, right=778205.0, top=2660775.0)",32628,24.0121872759432,-12.290194705325835,20210124T112351
Hard_Negative_S2B_MSIL2A_20200814T072209_R063_T38LPQ_20200816T060750_-9.39_46.32_image_l2a.tif,S2B_MSIL2A_20200814T072209_R063_T38LPQ_20200816T060750,"BoundingBox(left=642865.0, bottom=8959695.0, right=647955.0, top=8964785.0)",32738,-9.38562146301174,46.32426502559537,20200814T072209
Hard_Negative_S2A_MSIL2A_20230430T222041_R129_T59FLB_20240725T192343_-52.58_169.28_image_l2a.tif,S2A_MSIL2A_20230430T222041_R129_T59FLB_20240725T192343,"BoundingBox(left=380745.0, bottom=4170405.0, right=385835.0, top=4175495.0)",32759,-52.58094588494983,169.27746751787788,20230430T222041
Hard_Negative_S2A_MSIL2A_20201121T134211_R124_T21HWB_20201123T090001_-34.56_-56.88_image_l2a.tif,S2A_MSIL2A_20201121T134211_R124_T21HWB_20201123T090001,"BoundingBox(left=508165.0, bottom=6173315.0, right=513255.0, top=6178405.0)",32721,-34.55894445971655,-56.88324763186917,20201121T134211
Hard_Negative_S2B_MSIL2A_20230720T183929_R070_T11UPS_20241029T194923_51.25_-114.21_image_l2a.tif,S2B_MSIL2A_20230720T183929_R070_T11UPS_20241029T194923,"BoundingBox(left=692235.0, bottom=5679055.0, right=697325.0, top=5684145.0)",32611,51.252440484828114,-114.20872493821074,20230720T183929
Hard_Negative_S2A_MSIL2A_20220721T095041_R079_T33UXQ_20220723T101325_48.98_16.79_image_l2a.tif,S2A_MSIL2A_20220721T095041_R079_T33UXQ_20220723T101325,"BoundingBox(left=628675.0, bottom=5424745.0, right=633765.0, top=5429835.0)",32633,48.984561711426856,16.79353371479592,20220721T095041
Hard_Negative_S2B_MSIL2A_20221121T105249_R051_T30QUH_20250205T225126_19.84_-4.57_image_l2a.tif,S2B_MSIL2A_20221121T105249_R051_T30QUH_20250205T225126,"BoundingBox(left=333475.0, bottom=2192185.0, right=338565.0, top=2197275.0)",32630,19.841746523211917,-4.565901441951903,20221121T105249
Hard_Negative_S2A_MSIL2A_20230715T033541_R061_T47NLE_20230715T093323_3.89_97.87_image_l2a.tif,S2A_MSIL2A_20230715T033541_R061_T47NLE_20230715T093323,"BoundingBox(left=371945.0, bottom=427345.0, right=377035.0, top=432435.0)",32647,3.8885299134026856,97.86956064051607,20230715T033541
Hard_Negative_S2A_MSIL2A_20220625T160911_R140_T17TPM_20240629T134640_46.49_-79.24_image_l2a.tif,S2A_MSIL2A_20220625T160911_R140_T17TPM_20240629T134640,"BoundingBox(left=632795.0, bottom=5147675.0, right=637885.0, top=5152765.0)",32617,46.49194762519868,-79.23642832215599,20220625T160911
Hard_Negative_S2B_MSIL2A_20180717T131259_R081_T27WVM_20201011T165834_64.88_-21.85_image_l2a.tif,S2B_MSIL2A_20180717T131259_R081_T27WVM_20201011T165834,"BoundingBox(left=457195.0, bottom=7192735.0, right=462285.0, top=7197825.0)",32627,64.87935077922359,-21.84998435522244,20180717T131259
Hard_Negative_S2A_MSIL2A_20190810T131251_R138_T24MUB_20201004T223847_-3.57_-40.14_image_l2a.tif,S2A_MSIL2A_20190810T131251_R138_T24MUB_20201004T223847,"BoundingBox(left=371315.0, bottom=9602675.0, right=376405.0, top=9607765.0)",32724,-3.5709474548120586,-40.135705071680206,20190810T131251
Hard_Negative_S2A_MSIL2A_20180831T080601_R078_T39VVJ_20201103T175145_61.94_49.86_image_l2a.tif,S2A_MSIL2A_20180831T080601_R078_T39VVJ_20201103T175145,"BoundingBox(left=437385.0, bottom=6865375.0, right=442475.0, top=6870465.0)",32639,61.93904358070611,49.855336029383494,20180831T080601
Hard_Negative_S2A_MSIL2A_20211014T044751_R076_T46TCK_20211014T155436_39.94_91.66_image_l2a.tif,S2A_MSIL2A_20211014T044751_R076_T46TCK_20211014T155436,"BoundingBox(left=383105.0, bottom=4419315.0, right=388195.0, top=4424405.0)",32646,39.93913738416845,91.66157405651452,20211014T044751
Hard_Negative_S2B_MSIL2A_20230827T025529_R032_T50UQU_20241023T113211_48.48_119.98_image_l2a.tif,S2B_MSIL2A_20230827T025529_R032_T50UQU_20241023T113211,"BoundingBox(left=717675.0, bottom=5370895.0, right=722765.0, top=5375985.0)",32650,48.47548260497294,119.97984893133784,20230827T025529
Hard_Negative_S2B_MSIL2A_20190907T193939_R042_T10WFT_20201004T103339_65.17_-120.37_image_l2a.tif,S2B_MSIL2A_20190907T193939_R042_T10WFT_20201004T103339,"BoundingBox(left=620615.0, bottom=7227635.0, right=625705.0, top=7232725.0)",32610,65.17190942431262,-120.37072997251491,20190907T193939
Hard_Negative_S2A_MSIL2A_20190908T163901_R126_T15RXQ_20201004T104309_31.31_-91.39_image_l2a.tif,S2A_MSIL2A_20190908T163901_R126_T15RXQ_20201004T104309,"BoundingBox(left=650905.0, bottom=3462955.0, right=655995.0, top=3468045.0)",32615,31.313777724593123,-91.38740990953292,20190908T163901
Hard_Negative_S2A_MSIL2A_20220912T151711_R125_T18LVR_20240719T035010_-8.67_-75.10_image_l2a.tif,S2A_MSIL2A_20220912T151711_R125_T18LVR_20240719T035010,"BoundingBox(left=486445.0, bottom=9038895.0, right=491535.0, top=9043985.0)",32718,-8.671717274120287,-75.10008199964915,20220912T151711
Hard_Negative_S2B_MSIL2A_20220128T074049_R092_T37MCU_20220213T053219_-1.28_37.65_image_l2a.tif,S2B_MSIL2A_20220128T074049_R092_T37MCU_20220213T053219,"BoundingBox(left=347575.0, bottom=9855455.0, right=352665.0, top=9860545.0)",32737,-1.2843591311187457,37.65285470819161,20220128T074049
Hard_Negative_S2A_MSIL2A_20210717T105621_R094_T29RQK_20210717T234929_26.37_-6.82_image_l2a.tif,S2A_MSIL2A_20210717T105621_R094_T29RQK_20210717T234929,"BoundingBox(left=715295.0, bottom=2916455.0, right=720385.0, top=2921545.0)",32629,26.374472318637892,-6.816637933861543,20210717T105621
Hard_Negative_S2A_MSIL2A_20180815T060631_R134_T44VMN_20201011T015809_60.50_79.41_image_l2a.tif,S2A_MSIL2A_20180815T060631_R134_T44VMN_20201011T015809,"BoundingBox(left=410125.0, bottom=6705455.0, right=415215.0, top=6710545.0)",32644,60.4986300077571,79.41019979462756,20180815T060631
Hard_Negative_S2A_MSIL2A_20211225T023251_R103_T50KLB_20211225T112207_-21.20_115.63_image_l2a.tif,S2A_MSIL2A_20211225T023251_R103_T50KLB_20211225T112207,"BoundingBox(left=355405.0, bottom=7652855.0, right=360495.0, top=7657945.0)",32750,-21.197324603569122,115.63148517647619,20211225T023251
Hard_Negative_S2A_MSIL2A_20220914T071631_R006_T39RUJ_20240726T222849_25.89_49.15_image_l2a.tif,S2A_MSIL2A_20220914T071631_R006_T39RUJ_20240726T222849,"BoundingBox(left=311695.0, bottom=2861915.0, right=316785.0, top=2867005.0)",32639,25.88679492976057,49.14581210202107,20220914T071631
Hard_Negative_S2A_MSIL2A_20180920T150721_R082_T18MZD_20201009T030451_-1.17_-72.21_image_l2a.tif,S2A_MSIL2A_20180920T150721_R082_T18MZD_20201009T030451,"BoundingBox(left=808425.0, bottom=9867595.0, right=813515.0, top=9872685.0)",32718,-1.1734771152876182,-72.20592325527213,20180920T150721
Hard_Negative_S2A_MSIL2A_20220101T003711_R059_T55LCD_20220101T205158_-14.73_145.22_image_l2a.tif,S2A_MSIL2A_20220101T003711_R059_T55LCD_20220101T205158,"BoundingBox(left=305355.0, bottom=8368155.0, right=310445.0, top=8373245.0)",32755,-14.73068668664458,145.2156118367853,20220101T003711
Hard_Negative_S2A_MSIL2A_20220810T062641_R077_T41TPG_20220811T125120_41.93_65.28_image_l2a.tif,S2A_MSIL2A_20220810T062641_R077_T41TPG_20220811T125120,"BoundingBox(left=686345.0, bottom=4642165.0, right=691435.0, top=4647255.0)",32641,41.93175678618399,65.27830786971577,20220810T062641
Hard_Negative_S2B_MSIL2A_20220813T104629_R051_T29QQV_20240702T172048_17.94_-6.67_image_l2a.tif,S2B_MSIL2A_20220813T104629_R051_T29QQV_20240702T172048,"BoundingBox(left=744535.0, bottom=1982095.0, right=749625.0, top=1987185.0)",32629,17.93586952287753,-6.6673963493344,20220813T104629
Hard_Negative_S2A_MSIL2A_20230623T013701_R031_T52JDS_20240815T235834_-25.59_128.04_image_l2a.tif,S2A_MSIL2A_20230623T013701_R031_T52JDS_20240815T235834,"BoundingBox(left=401385.0, bottom=7166975.0, right=406475.0, top=7172065.0)",32752,-25.588673864758405,128.0433756364991,20230623T013701
Hard_Negative_S2A_MSIL2A_20220312T021351_R060_T50KQF_20240523T023711_-17.65_118.96_image_l2a.tif,S2A_MSIL2A_20220312T021351_R060_T50KQF_20240523T023711,"BoundingBox(left=705865.0, bottom=8045335.0, right=710955.0, top=8050425.0)",32750,-17.646139538198337,118.9644886723789,20220312T021351
Hard_Negative_S2A_MSIL2A_20191223T084351_R064_T34NFL_20201003T083455_4.47_22.72_image_l2a.tif,S2A_MSIL2A_20191223T084351_R064_T34NFL_20201003T083455,"BoundingBox(left=687795.0, bottom=491995.0, right=692885.0, top=497085.0)",32634,4.472156705544099,22.715472278226443,20191223T084351
Hard_Negative_S2B_MSIL2A_20220701T085559_R007_T34QEH_20240702T134421_20.34_21.97_image_l2a.tif,S2B_MSIL2A_20220701T085559_R007_T34QEH_20240702T134421,"BoundingBox(left=599175.0, bottom=2246955.0, right=604265.0, top=2252045.0)",32634,20.340837508838487,21.974500389646693,20220701T085559
Hard_Negative_S2B_MSIL2A_20220918T042709_R133_T48VVM_20240729T042547_59.57_104.53_image_l2a.tif,S2B_MSIL2A_20220918T042709_R133_T48VVM_20240729T042547,"BoundingBox(left=470985.0, bottom=6600975.0, right=476075.0, top=6606065.0)",32648,59.56911273667785,104.53148284662966,20220918T042709
Hard_Negative_S2B_MSIL2A_20220730T092559_R136_T33RWK_20220731T113835_26.31_16.06_image_l2a.tif,S2B_MSIL2A_20220730T092559_R136_T33RWK_20220731T113835,"BoundingBox(left=602935.0, bottom=2908275.0, right=608025.0, top=2913365.0)",32633,26.313371797707493,16.056769428335436,20220730T092559
Hard_Negative_S2B_MSIL2A_20181103T102159_R065_T31QDB_20201008T153037_19.18_2.29_image_l2a.tif,S2B_MSIL2A_20181103T102159_R065_T31QDB_20201008T153037,"BoundingBox(left=422615.0, bottom=2118575.0, right=427705.0, top=2123665.0)",32631,19.182013803001617,2.2881639187389347,20181103T102159
Hard_Negative_S2B_MSIL2A_20220109T153619_R111_T20VMH_20220110T175925_56.38_-64.15_image_l2a.tif,S2B_MSIL2A_20220109T153619_R111_T20VMH_20220110T175925,"BoundingBox(left=426615.0, bottom=6246635.0, right=431705.0, top=6251725.0)",32620,56.38192971522221,-64.1472358042569,20220109T153619
Hard_Negative_S2A_MSIL2A_20180823T170851_R112_T15UWR_20201027T033908_50.06_-92.14_image_l2a.tif,S2A_MSIL2A_20180823T170851_R112_T15UWR_20201027T033908,"BoundingBox(left=559165.0, bottom=5542875.0, right=564255.0, top=5547965.0)",32615,50.05785622041741,-92.13787744011951,20180823T170851
Hard_Negative_S2A_MSIL2A_20210718T034541_R104_T48TXN_20210718T173951_42.47_106.98_image_l2a.tif,S2A_MSIL2A_20210718T034541_R104_T48TXN_20210718T173951,"BoundingBox(left=660215.0, bottom=4701715.0, right=665305.0, top=4706805.0)",32648,42.4735866329967,106.98000761468552,20210718T034541
Hard_Negative_S2A_MSIL2A_20230210T111211_R137_T28PGQ_20240814T032459_8.57_-12.53_image_l2a.tif,S2A_MSIL2A_20230210T111211_R137_T28PGQ_20240814T032459,"BoundingBox(left=769175.0, bottom=945485.0, right=774265.0, top=950575.0)",32628,8.56859189056762,-12.531474673670001,20230210T111211
Hard_Negative_S2A_MSIL2A_20230520T100031_R122_T32RMU_20230520T172815_29.94_8.86_image_l2a.tif,S2A_MSIL2A_20230520T100031_R122_T32RMU_20230520T172815,"BoundingBox(left=483525.0, bottom=3309925.0, right=488615.0, top=3315015.0)",32632,29.942924458955808,8.855645914609603,20230520T100031
Hard_Negative_S2A_MSIL2A_20230404T094031_R036_T35VNK_20240825T224659_62.70_28.18_image_l2a.tif,S2A_MSIL2A_20230404T094031_R036_T35VNK_20240825T224659,"BoundingBox(left=558035.0, bottom=6949865.0, right=563125.0, top=6954955.0)",32635,62.697200638252156,28.18383435117186,20230404T094031
Hard_Negative_S2A_MSIL2A_20220814T144741_R139_T19LCC_20240703T134048_-15.73_-70.04_image_l2a.tif,S2A_MSIL2A_20220814T144741_R139_T19LCC_20240703T134048,"BoundingBox(left=385945.0, bottom=8258175.0, right=391035.0, top=8263265.0)",32719,-15.729416262685266,-70.04079593771885,20220814T144741
Hard_Negative_S2A_MSIL2A_20210919T172011_R012_T14SLD_20210920T080905_34.31_-100.12_image_l2a.tif,S2A_MSIL2A_20210919T172011_R012_T14SLD_20210920T080905,"BoundingBox(left=394205.0, bottom=3794075.0, right=399295.0, top=3799165.0)",32614,34.30567821500186,-100.12207193577382,20210919T172011
Hard_Negative_S2A_MSIL2A_20230529T153601_R111_T19UEP_20240904T113851_48.38_-67.80_image_l2a.tif,S2A_MSIL2A_20230529T153601_R111_T19UEP_20240904T113851,"BoundingBox(left=586235.0, bottom=5356815.0, right=591325.0, top=5361905.0)",32619,48.3811506597653,-67.8009636017928,20230529T153601
Hard_Negative_S2A_MSIL2A_20220208T094141_R036_T33RVL_20220220T111104_27.22_14.45_image_l2a.tif,S2A_MSIL2A_20220208T094141_R036_T33RVL_20220220T111104,"BoundingBox(left=442915.0, bottom=3008695.0, right=448005.0, top=3013785.0)",32633,27.222863534488575,14.449195472777646,20220208T094141
Hard_Negative_S2A_MSIL2A_20231129T083301_R021_T35QPE_20240926T080501_22.52_28.68_image_l2a.tif,S2A_MSIL2A_20231129T083301_R021_T35QPE_20240926T080501,"BoundingBox(left=670585.0, bottom=2488945.0, right=675675.0, top=2494035.0)",32635,22.52117440142878,28.68333005168526,20231129T083301
Hard_Negative_S2A_MSIL2A_20210912T054641_R048_T43TFL_20210912T125157_45.21_76.83_image_l2a.tif,S2A_MSIL2A_20210912T054641_R048_T43TFL_20210912T125157,"BoundingBox(left=641025.0, bottom=5005755.0, right=646115.0, top=5010845.0)",32643,45.213548694715044,76.82842026330965,20210912T054641
Hard_Negative_S2A_MSIL2A_20211210T013711_R031_T52KEE_20211210T103611_-18.27_129.33_image_l2a.tif,S2A_MSIL2A_20211210T013711_R031_T52KEE_20211210T103611,"BoundingBox(left=531975.0, bottom=7977855.0, right=537065.0, top=7982945.0)",32752,-18.265582851286574,129.32657710076023,20211210T013711
Hard_Negative_S2B_MSIL2A_20180827T143739_R096_T20LLR_20201027T052258_-8.85_-64.00_image_l2a.tif,S2B_MSIL2A_20180827T143739_R096_T20LLR_20201027T052258,"BoundingBox(left=387365.0, bottom=9019515.0, right=392455.0, top=9024605.0)",32720,-8.8456887450007,-64.00113327183894,20180827T143739
Hard_Negative_S2A_MSIL2A_20200808T142741_R053_T20MMT_20200815T111256_-6.66_-63.10_image_l2a.tif,S2A_MSIL2A_20200808T142741_R053_T20MMT_20200815T111256,"BoundingBox(left=485975.0, bottom=9261255.0, right=491065.0, top=9266345.0)",32720,-6.660320441245037,-63.103865191436114,20200808T142741
Hard_Negative_S2A_MSIL2A_20210602T101031_R022_T31PFT_20210606T130638_15.37_4.21_image_l2a.tif,S2A_MSIL2A_20210602T101031_R022_T31PFT_20210606T130638,"BoundingBox(left=627595.0, bottom=1696875.0, right=632685.0, top=1701965.0)",32631,15.368233261150571,4.212544912152062,20210602T101031
Hard_Negative_S2A_MSIL2A_20210527T014701_R074_T52NGF_20210527T164409_0.48_131.13_image_l2a.tif,S2A_MSIL2A_20210527T014701_R074_T52NGF_20210527T164409,"BoundingBox(left=734575.0, bottom=51015.0, right=739665.0, top=56105.0)",32652,0.4842370979294621,131.1305188645996,20210527T014701
Hard_Negative_S2B_MSIL2A_20230908T021349_R060_T51MTQ_20241027T160136_-4.94_120.72_image_l2a.tif,S2B_MSIL2A_20230908T021349_R060_T51MTQ_20241027T160136,"BoundingBox(left=245115.0, bottom=9451015.0, right=250205.0, top=9456105.0)",32751,-4.939786036808243,120.72447907657845,20230908T021349
Hard_Negative_S2A_MSIL2A_20211017T002101_R116_T55KFU_20211017T083415_-19.49_148.79_image_l2a.tif,S2A_MSIL2A_20211017T002101_R116_T55KFU_20211017T083415,"BoundingBox(left=685645.0, bottom=7841235.0, right=690735.0, top=7846325.0)",32755,-19.49172352072739,148.79313817890392,20211017T002101
Hard_Negative_S2A_MSIL2A_20210303T035651_R004_T48TVP_20210303T174111_43.94_103.95_image_l2a.tif,S2A_MSIL2A_20210303T035651_R004_T48TVP_20210303T174111,"BoundingBox(left=413055.0, bottom=4862925.0, right=418145.0, top=4868015.0)",32648,43.937508367054,103.9483842850085,20210303T035651
Hard_Negative_S2A_MSIL2A_20200527T171901_R012_T16VER_20201027T071932_63.74_-85.74_image_l2a.tif,S2A_MSIL2A_20200527T171901_R012_T16VER_20201027T071932,"BoundingBox(left=559405.0, bottom=7065735.0, right=564495.0, top=7070825.0)",32616,63.73666573094652,-85.74513627907666,20200527T171901
Hard_Negative_S2A_MSIL2A_20211113T000731_R073_T56LNN_20211113T083157_-11.28_153.37_image_l2a.tif,S2A_MSIL2A_20211113T000731_R073_T56LNN_20211113T083157,"BoundingBox(left=538005.0, bottom=8751075.0, right=543095.0, top=8756165.0)",32756,-11.274707068624465,153.37153567414504,20211113T000731
Hard_Negative_S2A_MSIL2A_20210613T013711_R031_T52LFM_20210614T212549_-12.68_130.35_image_l2a.tif,S2A_MSIL2A_20210613T013711_R031_T52LFM_20210614T212549,"BoundingBox(left=643785.0, bottom=8594915.0, right=648875.0, top=8600005.0)",32752,-12.683738843708408,130.34759583781724,20210613T013711
Hard_Negative_S2A_MSIL2A_20220319T050701_R019_T44SPB_20240525T173416_32.69_82.93_image_l2a.tif,S2A_MSIL2A_20220319T050701_R019_T44SPB_20240525T173416,"BoundingBox(left=678745.0, bottom=3616615.0, right=683835.0, top=3621705.0)",32644,32.69528156788502,82.93390943616639,20220319T050701
Hard_Negative_S2A_MSIL2A_20230612T164841_R026_T16UEB_20240912T142600_51.23_-85.82_image_l2a.tif,S2A_MSIL2A_20230612T164841_R026_T16UEB_20240912T142600,"BoundingBox(left=579725.0, bottom=5673995.0, right=584815.0, top=5679085.0)",32616,51.234293151594244,-85.82157423281049,20230612T164841
Hard_Negative_S2B_MSIL2A_20220128T110219_R094_T30TVK_20220213T075830_40.47_-3.20_image_l2a.tif,S2B_MSIL2A_20220128T110219_R094_T30TVK_20220213T075830,"BoundingBox(left=480775.0, bottom=4476935.0, right=485865.0, top=4482025.0)",32630,40.46582190490169,-3.1967619976989647,20220128T110219
Hard_Negative_S2A_MSIL2A_20231013T135701_R067_T20HQH_20241104T071829_-34.30_-60.73_image_l2a.tif,S2A_MSIL2A_20231013T135701_R067_T20HQH_20241104T071829,"BoundingBox(left=706395.0, bottom=6200155.0, right=711485.0, top=6205245.0)",32720,-34.29590888085936,-60.72977522287782,20231013T135701
Hard_Negative_S2B_MSIL2A_20220721T021539_R003_T50NNJ_20240713T000247_3.57_117.82_image_l2a.tif,S2B_MSIL2A_20220721T021539_R003_T50NNJ_20240713T000247,"BoundingBox(left=588245.0, bottom=392645.0, right=593335.0, top=397735.0)",32650,3.5749957908727685,117.81745985812161,20220721T021539
Hard_Negative_S2A_MSIL2A_20190920T124311_R009_T25MBP_20201004T151607_-6.00_-35.13_image_l2a.tif,S2A_MSIL2A_20190920T124311_R009_T25MBP_20201004T151607,"BoundingBox(left=262095.0, bottom=9333355.0, right=267185.0, top=9338445.0)",32725,-6.003966577145295,-35.126229422090105,20190920T124311
Hard_Negative_S2A_MSIL2A_20211108T090201_R007_T33LWJ_20211109T114225_-10.25_15.34_image_l2a.tif,S2A_MSIL2A_20211108T090201_R007_T33LWJ_20211109T114225,"BoundingBox(left=535155.0, bottom=8864055.0, right=540245.0, top=8869145.0)",32733,-10.252950043992515,15.344261509921665,20211108T090201
Hard_Negative_S2B_MSIL2A_20180717T131259_R081_T27WVM_20201011T165834_64.89_-22.24_image_l2a.tif,S2B_MSIL2A_20180717T131259_R081_T27WVM_20201011T165834,"BoundingBox(left=438865.0, bottom=7194495.0, right=443955.0, top=7199585.0)",32627,64.89242792498106,-22.237587751707693,20180717T131259
Hard_Negative_S2B_MSIL2A_20220310T102739_R108_T30QXF_20240527T153019_18.64_-1.47_image_l2a.tif,S2B_MSIL2A_20220310T102739_R108_T30QXF_20240527T153019,"BoundingBox(left=658395.0, bottom=2059325.0, right=663485.0, top=2064415.0)",32630,18.641715073419217,-1.4742545788364145,20220310T102739
Hard_Negative_S2B_MSIL2A_20230625T160829_R140_T17SKS_20230625T224521_32.65_-83.37_image_l2a.tif,S2B_MSIL2A_20230625T160829_R140_T17SKS_20230625T224521,"BoundingBox(left=275275.0, bottom=3612475.0, right=280365.0, top=3617565.0)",32617,32.65048667107445,-83.36882373972277,20230625T160829
Hard_Negative_S2A_MSIL2A_20230819T093041_R136_T33QWB_20241018T103748_19.41_15.50_image_l2a.tif,S2A_MSIL2A_20230819T093041_R136_T33QWB_20241018T103748,"BoundingBox(left=549675.0, bottom=2144295.0, right=554765.0, top=2149385.0)",32633,19.415155067606946,15.497397584177914,20230819T093041
Hard_Negative_S2A_MSIL2A_20220526T074621_R135_T37RFK_20220527T065746_26.47_40.41_image_l2a.tif,S2A_MSIL2A_20220526T074621_R135_T37RFK_20220527T065746,"BoundingBox(left=637555.0, bottom=2926135.0, right=642645.0, top=2931225.0)",32637,26.471612996127302,40.40549202955559,20220526T074621
Hard_Negative_S2A_MSIL2A_20180607T085601_R007_T33MWR_20201026T180316_-4.38_15.79_image_l2a.tif,S2A_MSIL2A_20180607T085601_R007_T33MWR_20201026T180316,"BoundingBox(left=584885.0, bottom=9512995.0, right=589975.0, top=9518085.0)",32733,-4.382559969260582,15.787976032292292,20180607T085601
Hard_Negative_S2B_MSIL2A_20220428T143719_R096_T20NNF_20220429T084217_0.69_-62.41_image_l2a.tif,S2B_MSIL2A_20220428T143719_R096_T20NNF_20220429T084217,"BoundingBox(left=562835.0, bottom=73375.0, right=567925.0, top=78465.0)",32620,0.6868354049687103,-62.4124147666394,20220428T143719
Hard_Negative_S2A_MSIL2A_20220119T094321_R036_T33QUG_20220119T233919_24.03_13.38_image_l2a.tif,S2A_MSIL2A_20220119T094321_R036_T33QUG_20220119T233919,"BoundingBox(left=332495.0, bottom=2656195.0, right=337585.0, top=2661285.0)",32633,24.032174053874417,13.377888836400732,20220119T094321
Hard_Negative_S2A_MSIL2A_20210420T031531_R118_T48NUG_20210420T230503_1.24_103.55_image_l2a.tif,S2A_MSIL2A_20210420T031531_R118_T48NUG_20210420T230503,"BoundingBox(left=336005.0, bottom=134375.0, right=341095.0, top=139465.0)",32648,1.2383565726025922,103.5489087788671,20210420T031531
Hard_Negative_S2B_MSIL2A_20221207T132919_R138_T15CWP_20221208T130741_-77.86_-92.06_image_l2a.tif,S2B_MSIL2A_20221207T132919_R138_T15CWP_20221208T130741,"BoundingBox(left=519505.0, bottom=1354855.0, right=524595.0, top=1359945.0)",32715,-77.85709206309653,-92.06074322921253,20221207T132919
Hard_Negative_S2B_MSIL2A_20180710T081559_R121_T36QVK_20201011T141543_22.01_33.04_image_l2a.tif,S2B_MSIL2A_20180710T081559_R121_T36QVK_20201011T141543,"BoundingBox(left=502035.0, bottom=2431255.0, right=507125.0, top=2436345.0)",32636,22.008783129650308,33.04437758978801,20180710T081559
Hard_Negative_S2A_MSIL2A_20221029T030841_R075_T50TPS_20221029T133150_46.52_119.43_image_l2a.tif,S2A_MSIL2A_20221029T030841_R075_T50TPS_20221029T133150,"BoundingBox(left=683965.0, bottom=5152235.0, right=689055.0, top=5157325.0)",32650,46.520730306824085,119.4316475440996,20221029T030841
Hard_Negative_S2A_MSIL2A_20210210T075041_R135_T40VER_20210211T203828_63.97_58.04_image_l2a.tif,S2A_MSIL2A_20210210T075041_R135_T40VER_20210211T203828,"BoundingBox(left=548135.0, bottom=7091125.0, right=553225.0, top=7096215.0)",32640,63.96628944329056,58.03497359230433,20210210T075041
Hard_Negative_S2A_MSIL2A_20211028T175451_R141_T13TEL_20211029T023957_45.17_-103.93_image_l2a.tif,S2A_MSIL2A_20211028T175451_R141_T13TEL_20211029T023957,"BoundingBox(left=581755.0, bottom=5000235.0, right=586845.0, top=5005325.0)",32613,45.17345835008109,-103.9271553862337,20211028T175451
Hard_Negative_S2B_MSIL2A_20210805T141739_R010_T21MUQ_20210805T233940_-4.99_-58.66_image_l2a.tif,S2B_MSIL2A_20210805T141739_R010_T21MUQ_20210805T233940,"BoundingBox(left=312995.0, bottom=9446135.0, right=318085.0, top=9451225.0)",32721,-4.985732471348653,-58.663718241646876,20210805T141739
Hard_Negative_S2A_MSIL2A_20201203T155521_R011_T17QQF_20201204T080223_23.33_-78.08_image_l2a.tif,S2A_MSIL2A_20201203T155521_R011_T17QQF_20201204T080223,"BoundingBox(left=796355.0, bottom=2580975.0, right=801445.0, top=2586065.0)",32617,23.334035045024592,-78.07700472191485,20201203T155521
Hard_Negative_S2B_MSIL2A_20220414T061629_R034_T42UXV_20220414T232849_48.69_71.55_image_l2a.tif,S2B_MSIL2A_20220414T061629_R034_T42UXV_20220414T232849,"BoundingBox(left=684995.0, bottom=5393545.0, right=690085.0, top=5398635.0)",32642,48.6896428269294,71.54836299724381,20220414T061629
Hard_Negative_S2A_MSIL2A_20211208T090351_R007_T35RKM_20211209T024735_27.95_24.73_image_l2a.tif,S2A_MSIL2A_20211208T090351_R007_T35RKM_20211209T024735,"BoundingBox(left=273885.0, bottom=3091095.0, right=278975.0, top=3096185.0)",32635,27.94907450528389,24.727555367296976,20211208T090351
Hard_Negative_S2A_MSIL2A_20230904T162841_R083_T16TFR_20241027T134854_45.69_-84.65_image_l2a.tif,S2A_MSIL2A_20230904T162841_R083_T16TFR_20241027T134854,"BoundingBox(left=680095.0, bottom=5060135.0, right=685185.0, top=5065225.0)",32616,45.69358169680629,-84.65418144173104,20230904T162841
Hard_Negative_S2A_MSIL2A_20230520T133841_R124_T22LCK_20230520T224926_-14.40_-52.18_image_l2a.tif,S2A_MSIL2A_20230520T133841_R124_T22LCK_20230520T224926,"BoundingBox(left=369775.0, bottom=8405175.0, right=374865.0, top=8410265.0)",32722,-14.399879125253111,-52.184327862134964,20230520T133841
Hard_Negative_S2A_MSIL2A_20230120T082241_R121_T35PQP_20230122T014150_12.56_29.16_image_l2a.tif,S2A_MSIL2A_20230120T082241_R121_T35PQP_20230122T014150,"BoundingBox(left=731685.0, bottom=1387055.0, right=736775.0, top=1392145.0)",32635,12.561470746176703,29.155784446918133,20230120T082241
Hard_Negative_S2A_MSIL2A_20180117T131241_R138_T23KMV_20201014T062431_-18.38_-45.51_image_l2a.tif,S2A_MSIL2A_20180117T131241_R138_T23KMV_20201014T062431,"BoundingBox(left=443835.0, bottom=7964835.0, right=448925.0, top=7969925.0)",32723,-18.382863650514032,-45.50761006860146,20180117T131241
Hard_Negative_S2A_MSIL2A_20220514T102601_R108_T30PXC_20220516T214405_15.59_-1.33_image_l2a.tif,S2A_MSIL2A_20220514T102601_R108_T30PXC_20220516T214405,"BoundingBox(left=676355.0, bottom=1721555.0, right=681445.0, top=1726645.0)",32630,15.58833135038542,-1.3314800131961455,20220514T102601
Hard_Negative_S2A_MSIL2A_20220512T095031_R079_T32QMG_20220514T095417_19.81_9.03_image_l2a.tif,S2A_MSIL2A_20220512T095031_R079_T32QMG_20220514T095417,"BoundingBox(left=500995.0, bottom=2187945.0, right=506085.0, top=2193035.0)",32632,19.810301194905186,9.033804705979875,20220512T095031
Hard_Negative_S2B_MSIL2A_20230428T164849_R026_T15RVP_20240901T042359_30.26_-93.89_image_l2a.tif,S2B_MSIL2A_20230428T164849_R026_T15RVP_20240901T042359,"BoundingBox(left=411815.0, bottom=3345965.0, right=416905.0, top=3351055.0)",32615,30.26521894055295,-93.89030788830807,20230428T164849
Hard_Negative_S2A_MSIL2A_20190911T082601_R021_T34LHP_20201004T114801_-10.42_23.91_image_l2a.tif,S2A_MSIL2A_20190911T082601_R021_T34LHP_20201004T114801,"BoundingBox(left=815925.0, bottom=8843735.0, right=821015.0, top=8848825.0)",32734,-10.423679009767657,23.908541302464656,20190911T082601
Hard_Negative_S2A_MSIL2A_20200401T065621_R063_T43WDQ_20200924T125830_66.66_74.62_image_l2a.tif,S2A_MSIL2A_20200401T065621_R063_T43WDQ_20200924T125830,"BoundingBox(left=480455.0, bottom=7390645.0, right=485545.0, top=7395735.0)",32643,66.65693013502103,74.61546911835106,20200401T065621
Hard_Negative_S2A_MSIL2A_20240619T021351_R060_T51MTN_20240619T061551_-6.77_121.16_image_l2a.tif,S2A_MSIL2A_20240619T021351_R060_T51MTN_20240619T061551,"BoundingBox(left=293575.0, bottom=9249055.0, right=298665.0, top=9254145.0)",32751,-6.767194332686485,121.15532421595427,20240619T021351
Hard_Negative_S2B_MSIL2A_20190817T052949_R019_T43MBM_20201005T013340_-7.30_72.35_image_l2a.tif,S2B_MSIL2A_20190817T052949_R019_T43MBM_20201005T013340,"BoundingBox(left=204395.0, bottom=9190135.0, right=209485.0, top=9195225.0)",32743,-7.2958795504426,72.34591390864291,20190817T052949
Hard_Negative_S2A_MSIL2A_20180503T113321_R080_T28QEG_20201012T051801_19.72_-14.52_image_l2a.tif,S2A_MSIL2A_20180503T113321_R080_T28QEG_20201012T051801,"BoundingBox(left=547755.0, bottom=2177835.0, right=552845.0, top=2182925.0)",32628,19.718298709912098,-14.519993486878818,20180503T113321
Hard_Negative_S2A_MSIL2A_20231002T072731_R049_T37MGV_20231002T153730_-0.40_41.13_image_l2a.tif,S2A_MSIL2A_20231002T072731_R049_T37MGV_20231002T153730,"BoundingBox(left=734715.0, bottom=9953455.0, right=739805.0, top=9958545.0)",32737,-0.3978047023742327,41.131751564695584,20231002T072731
Hard_Negative_S2B_MSIL2A_20190720T090559_R050_T35TMK_20201005T170607_45.13_27.01_image_l2a.tif,S2B_MSIL2A_20190720T090559_R050_T35TMK_20201005T170607,"BoundingBox(left=497855.0, bottom=4994455.0, right=502945.0, top=4999545.0)",32635,45.126468951892136,27.005088395024345,20190720T090559
Hard_Negative_S2A_MSIL2A_20230207T041941_R090_T46QDJ_20240812T175553_20.99_92.36_image_l2a.tif,S2A_MSIL2A_20230207T041941_R090_T46QDJ_20240812T175553,"BoundingBox(left=430585.0, bottom=2318275.0, right=435675.0, top=2323365.0)",32646,20.98678725571172,92.35664178371061,20230207T041941
Hard_Negative_S2B_MSIL2A_20211228T034619_R075_T43DEC_20211228T123954_-70.08_75.78_image_l2a.tif,S2B_MSIL2A_20211228T034619_R075_T43DEC_20211228T123954,"BoundingBox(left=526995.0, bottom=2222835.0, right=532085.0, top=2227925.0)",32743,-70.07673431690861,75.77682924547277,20211228T034619
Hard_Negative_S2A_MSIL2A_20231017T164301_R126_T15SYR_20241027T174458_32.19_-90.61_image_l2a.tif,S2A_MSIL2A_20231017T164301_R126_T15SYR_20241027T174458,"BoundingBox(left=722985.0, bottom=3561435.0, right=728075.0, top=3566525.0)",32615,32.18976974843358,-90.6076658560849,20231017T164301
Hard_Negative_S2A_MSIL2A_20230409T235621_R116_T60WWA_20240807T043130_67.86_178.00_image_l2a.tif,S2A_MSIL2A_20230409T235621_R116_T60WWA_20240807T043130,"BoundingBox(left=539425.0, bottom=7525345.0, right=544515.0, top=7530435.0)",32660,67.86264155670092,177.9981339434994,20230409T235621
Hard_Negative_S2A_MSIL2A_20220718T132251_R038_T23MQQ_20220719T015627_-5.17_-43.08_image_l2a.tif,S2A_MSIL2A_20220718T132251_R038_T23MQQ_20220719T015627,"BoundingBox(left=710185.0, bottom=9425555.0, right=715275.0, top=9430645.0)",32723,-5.17111179062095,-43.08084339356515,20220718T132251
Hard_Negative_S2A_MSIL2A_20230101T093411_R136_T32NPN_20240807T065838_6.86_10.55_image_l2a.tif,S2A_MSIL2A_20230101T093411_R136_T32NPN_20240807T065838,"BoundingBox(left=669115.0, bottom=755745.0, right=674205.0, top=760835.0)",32632,6.85764480616852,10.5535217709293,20230101T093411
Hard_Negative_S2A_MSIL2A_20230818T133841_R124_T22KDD_20241024T231746_-19.69_-51.17_image_l2a.tif,S2A_MSIL2A_20230818T133841_R124_T22KDD_20241024T231746,"BoundingBox(left=479825.0, bottom=7820475.0, right=484915.0, top=7825565.0)",32722,-19.688136542407754,-51.16821291752453,20230818T133841
Hard_Negative_S2A_MSIL2A_20210107T081321_R078_T35NQB_20210121T101023_1.47_29.35_image_l2a.tif,S2A_MSIL2A_20210107T081321_R078_T35NQB_20210121T101023,"BoundingBox(left=759115.0, bottom=160035.0, right=764205.0, top=165125.0)",32635,1.4696627713075934,29.351577132439807,20210107T081321
Hard_Negative_S2B_MSIL2A_20191224T061749_R005_T37DEC_20201003T091017_-70.06_39.31_image_l2a.tif,S2B_MSIL2A_20191224T061749_R005_T37DEC_20201003T091017,"BoundingBox(left=509165.0, bottom=2225205.0, right=514255.0, top=2230295.0)",32737,-70.05690511970113,39.307688791842125,20191224T061749
Hard_Negative_S2A_MSIL2A_20180103T133221_R081_T22HBJ_20201014T030113_-32.74_-53.59_image_l2a.tif,S2A_MSIL2A_20180103T133221_R081_T22HBJ_20201014T030113,"BoundingBox(left=254755.0, bottom=6371685.0, right=259845.0, top=6376775.0)",32722,-32.74304335189825,-53.59021555130771,20180103T133221
Hard_Negative_S2B_MSIL2A_20180102T093359_R136_T33QUA_20201014T025210_18.81_13.59_image_l2a.tif,S2B_MSIL2A_20180102T093359_R136_T33QUA_20201014T025210,"BoundingBox(left=348515.0, bottom=2078215.0, right=353605.0, top=2083305.0)",32633,18.813278431657345,13.58657189397903,20180102T093359
Hard_Negative_S2B_MSIL2A_20221005T031609_R089_T43CDS_20240712T230156_-75.38_73.80_image_l2a.tif,S2B_MSIL2A_20221005T031609_R089_T43CDS_20240712T230156,"BoundingBox(left=463695.0, bottom=1631435.0, right=468785.0, top=1636525.0)",32743,-75.37705190017181,73.80179708401357,20221005T031609
Hard_Negative_S2A_MSIL2A_20211113T233821_R087_T57KVT_20211114T072350_-20.51_158.99_image_l2a.tif,S2A_MSIL2A_20211113T233821_R087_T57KVT_20211114T072350,"BoundingBox(left=496735.0, bottom=7729615.0, right=501825.0, top=7734705.0)",32757,-20.50927977787328,158.9930934680547,20211113T233821
Hard_Negative_S2A_MSIL2A_20220315T171051_R112_T14SNB_20240525T020114_32.63_-98.13_image_l2a.tif,S2A_MSIL2A_20220315T171051_R112_T14SNB_20240525T020114,"BoundingBox(left=578665.0, bottom=3607755.0, right=583755.0, top=3612845.0)",32614,32.627284335170074,-98.13428981892821,20220315T171051
Hard_Negative_S2A_MSIL2A_20190823T043701_R033_T47UMV_20201005T034534_53.26_98.12_image_l2a.tif,S2A_MSIL2A_20190823T043701_R033_T47UMV_20201005T034534,"BoundingBox(left=438935.0, bottom=5899145.0, right=444025.0, top=5904235.0)",32647,53.26122496898299,98.12266923386885,20190823T043701
Hard_Negative_S2B_MSIL2A_20220710T093039_R136_T33QVA_20240716T232818_18.92_14.94_image_l2a.tif,S2B_MSIL2A_20220710T093039_R136_T33QVA_20240716T232818,"BoundingBox(left=491505.0, bottom=2089995.0, right=496595.0, top=2095085.0)",32633,18.925090118718096,14.943489813410059,20220710T093039
Hard_Negative_S2B_MSIL2A_20220116T084209_R064_T35QMD_20220116T205634_21.54_26.43_image_l2a.tif,S2B_MSIL2A_20220116T084209_R064_T35QMD_20220116T205634,"BoundingBox(left=438395.0, bottom=2380045.0, right=443485.0, top=2385135.0)",32635,21.545141186762763,26.42963276811185,20220116T084209
Hard_Negative_S2B_MSIL2A_20200730T042709_R133_T47TMM_20200818T043055_46.57_98.56_image_l2a.tif,S2B_MSIL2A_20200730T042709_R133_T47TMM_20200818T043055,"BoundingBox(left=463975.0, bottom=5154685.0, right=469065.0, top=5159775.0)",32647,46.56779699802391,98.56311798395839,20200730T042709
Hard_Negative_S2B_MSIL2A_20220728T140709_R110_T21MVQ_20240716T001518_-5.07_-57.44_image_l2a.tif,S2B_MSIL2A_20220728T140709_R110_T21MVQ_20240716T001518,"BoundingBox(left=448245.0, bottom=9437275.0, right=453335.0, top=9442365.0)",32721,-5.067838963912401,-57.443958238719034,20220728T140709
Hard_Negative_S2B_MSIL2A_20210525T081609_R121_T35MLR_20210605T183221_-3.78_26.04_image_l2a.tif,S2B_MSIL2A_20210525T081609_R121_T35MLR_20210605T183221,"BoundingBox(left=390835.0, bottom=9579795.0, right=395925.0, top=9584885.0)",32735,-3.778113303861465,26.0398042783604,20210525T081609
Hard_Negative_S2A_MSIL2A_20211010T020451_R017_T51LWG_20211010T115858_-12.27_123.04_image_l2a.tif,S2A_MSIL2A_20211010T020451_R017_T51LWG_20211010T115858,"BoundingBox(left=502015.0, bottom=8641315.0, right=507105.0, top=8646405.0)",32751,-12.267554148593401,123.04193284954314,20211010T020451
Hard_Negative_S2A_MSIL2A_20220831T143741_R096_T19KDP_20240703T184907_-23.64_-69.12_image_l2a.tif,S2A_MSIL2A_20220831T143741_R096_T19KDP_20240703T184907,"BoundingBox(left=485325.0, bottom=7383375.0, right=490415.0, top=7388465.0)",32719,-23.637328739833883,-69.11893277204621,20220831T143741
Hard_Negative_S2B_MSIL2A_20200109T160629_R097_T18UXF_20201029T181703_54.35_-72.46_image_l2a.tif,S2B_MSIL2A_20200109T160629_R097_T18UXF_20201029T181703,"BoundingBox(left=662525.0, bottom=6023295.0, right=667615.0, top=6028385.0)",32618,54.35360531366364,-72.45989060586746,20200109T160629
Hard_Negative_S2B_MSIL2A_20221004T095029_R079_T32RQN_20221005T011342_24.71_11.67_image_l2a.tif,S2B_MSIL2A_20221004T095029_R079_T32RQN_20221005T011342,"BoundingBox(left=767575.0, bottom=2733195.0, right=772665.0, top=2738285.0)",32632,24.71244022105085,11.670037713561836,20221004T095029
Hard_Negative_S2A_MSIL2A_20210216T150721_R082_T19NDD_20210218T234106_3.38_-69.43_image_l2a.tif,S2A_MSIL2A_20210216T150721_R082_T19NDD_20210218T234106,"BoundingBox(left=450075.0, bottom=371325.0, right=455165.0, top=376415.0)",32619,3.3823853976543283,-69.42652674919697,20210216T150721
Hard_Negative_S2B_MSIL2A_20210513T023549_R089_T50QMH_20210514T141122_20.64_116.86_image_l2a.tif,S2B_MSIL2A_20210513T023549_R089_T50QMH_20210514T141122,"BoundingBox(left=482315.0, bottom=2280215.0, right=487405.0, top=2285305.0)",32650,20.644036832925792,116.85466158555042,20210513T023549
Hard_Negative_S2A_MSIL2A_20190306T025601_R032_T51VXD_20201030T174745_56.94_125.66_image_l2a.tif,S2A_MSIL2A_20190306T025601_R032_T51VXD_20201030T174745,"BoundingBox(left=659185.0, bottom=6311005.0, right=664275.0, top=6316095.0)",32651,56.937279290583575,125.65825721954312,20190306T025601
Hard_Negative_S2A_MSIL2A_20210423T221941_R029_T60KYG_20210425T131018_-16.76_179.14_image_l2a.tif,S2A_MSIL2A_20210423T221941_R029_T60KYG_20210425T131018,"BoundingBox(left=725375.0, bottom=8142925.0, right=730465.0, top=8148015.0)",32760,-16.762690275886403,179.13814823719284,20210423T221941
Hard_Negative_S2A_MSIL2A_20180102T021341_R060_T51NWB_20201014T024403_0.88_123.62_image_l2a.tif,S2A_MSIL2A_20180102T021341_R060_T51NWB_20201014T024403,"BoundingBox(left=566175.0, bottom=94665.0, right=571265.0, top=99755.0)",32651,0.8794372640027659,123.61762966220738,20180102T021341
Hard_Negative_S2B_MSIL2A_20181009T214749_R143_T01GEM_20201009T095901_-44.25_-176.15_image_l2a.tif,S2B_MSIL2A_20181009T214749_R143_T01GEM_20201009T095901,"BoundingBox(left=565215.0, bottom=5097865.0, right=570305.0, top=5102955.0)",32701,-44.246389324849915,-176.15130783240147,20181009T214749
Hard_Negative_S2A_MSIL2A_20230207T011721_R088_T53JLL_20230207T193604_-26.77_133.25_image_l2a.tif,S2A_MSIL2A_20230207T011721_R088_T53JLL_20230207T193604,"BoundingBox(left=323745.0, bottom=7035575.0, right=328835.0, top=7040665.0)",32753,-26.767523452139738,133.25289477036569,20230207T011721
Hard_Negative_S2A_MSIL2A_20211004T233821_R087_T57KVT_20211008T000239_-20.83_158.47_image_l2a.tif,S2A_MSIL2A_20211004T233821_R087_T57KVT_20211008T000239,"BoundingBox(left=442555.0, bottom=7693615.0, right=447645.0, top=7698705.0)",32757,-20.83376290237125,158.4723377291985,20211004T233821
Hard_Negative_S2A_MSIL2A_20200104T024111_R089_T50PNB_20201002T223851_15.10_117.72_image_l2a.tif,S2A_MSIL2A_20200104T024111_R089_T50PNB_20201002T223851,"BoundingBox(left=574465.0, bottom=1667095.0, right=579555.0, top=1672185.0)",32650,15.101156465538939,117.71664664288294,20200104T024111
Hard_Negative_S2A_MSIL2A_20210503T182921_R027_T11SLT_20210611T001001_33.68_-118.13_image_l2a.tif,S2A_MSIL2A_20210503T182921_R027_T11SLT_20210611T001001,"BoundingBox(left=392305.0, bottom=3724735.0, right=397395.0, top=3729825.0)",32611,33.68023864941303,-118.13437556326926,20210503T182921
Hard_Negative_S2A_MSIL2A_20220703T102611_R108_T31RCQ_20220704T011757_31.10_1.46_image_l2a.tif,S2A_MSIL2A_20220703T102611_R108_T31RCQ_20220704T011757,"BoundingBox(left=351015.0, bottom=3439475.0, right=356105.0, top=3444565.0)",32631,31.10289975871706,1.4644802410336957,20220703T102611
Hard_Negative_S2A_MSIL2A_20220722T011741_R088_T53KLT_20220724T035733_-20.00_133.19_image_l2a.tif,S2A_MSIL2A_20220722T011741_R088_T53KLT_20220724T035733,"BoundingBox(left=307895.0, bottom=7785255.0, right=312985.0, top=7790345.0)",32753,-19.99722856611838,133.18811461586452,20220722T011741
Hard_Negative_S2A_MSIL2A_20231221T010111_R045_T55QCU_20231222T031328_16.68_145.80_image_l2a.tif,S2A_MSIL2A_20231221T010111_R045_T55QCU_20231222T031328,"BoundingBox(left=369355.0, bottom=1841565.0, right=374445.0, top=1846655.0)",32655,16.6761025566829,145.79865742393648,20231221T010111
Hard_Negative_S2B_MSIL2A_20240415T051649_R062_T42MZV_20240415T093234_-5.38_71.97_image_l2a.tif,S2B_MSIL2A_20240415T051649_R062_T42MZV_20240415T093234,"BoundingBox(left=827095.0, bottom=9401895.0, right=832185.0, top=9406985.0)",32742,-5.380796171579794,71.97409463683049,20240415T051649
Hard_Negative_S2A_MSIL2A_20230410T045701_R119_T45SVU_20230410T113157_34.85_86.83_image_l2a.tif,S2A_MSIL2A_20230410T045701_R119_T45SVU_20230410T113157,"BoundingBox(left=482065.0, bottom=3854105.0, right=487155.0, top=3859195.0)",32645,34.85205498189934,86.83164032322152,20230410T045701
Hard_Negative_S2A_MSIL2A_20230613T112121_R037_T28QFJ_20240927T183056_21.14_-13.97_image_l2a.tif,S2A_MSIL2A_20230613T112121_R037_T28QFJ_20240927T183056,"BoundingBox(left=604085.0, bottom=2335925.0, right=609175.0, top=2341015.0)",32628,21.144365452047406,-13.973055675946371,20230613T112121
Hard_Negative_S2B_MSIL2A_20200330T034529_R104_T47QQE_20201021T124625_22.21_101.27_image_l2a.tif,S2B_MSIL2A_20200330T034529_R104_T47QQE_20201021T124625,"BoundingBox(left=731835.0, bottom=2455515.0, right=736925.0, top=2460605.0)",32647,22.212076781556295,101.27363699425916,20200330T034529
Hard_Negative_S2B_MSIL2A_20220208T103109_R108_T30QWE_20220220T114449_17.87_-2.18_image_l2a.tif,S2B_MSIL2A_20220208T103109_R108_T30QWE_20220220T114449,"BoundingBox(left=584475.0, bottom=1973275.0, right=589565.0, top=1978365.0)",32630,17.86842282602378,-2.1786181817147456,20220208T103109
Hard_Negative_S2A_MSIL2A_20190727T095031_R079_T34VFM_20201106T030019_59.79_23.15_image_l2a.tif,S2A_MSIL2A_20190727T095031_R079_T34VFM_20201106T030019,"BoundingBox(left=617875.0, bottom=6627885.0, right=622965.0, top=6632975.0)",32634,59.79409188216371,23.145887964662187,20190727T095031
Hard_Negative_S2A_MSIL2A_20211003T065721_R063_T40SDJ_20211003T190550_39.15_56.78_image_l2a.tif,S2A_MSIL2A_20211003T065721_R063_T40SDJ_20211003T190550,"BoundingBox(left=478805.0, bottom=4331445.0, right=483895.0, top=4336535.0)",32640,39.15491057359161,56.78414059454843,20211003T065721
Hard_Negative_S2B_MSIL2A_20220117T081159_R078_T36PWV_20220117T232253_12.99_33.87_image_l2a.tif,S2B_MSIL2A_20220117T081159_R078_T36PWV_20220117T232253,"BoundingBox(left=591975.0, bottom=1433825.0, right=597065.0, top=1438915.0)",32636,12.991613327829597,33.871565620731886,20220117T081159
Hard_Negative_S2A_MSIL2A_20210905T173901_R098_T13TFF_20210906T065203_41.07_-102.92_image_l2a.tif,S2A_MSIL2A_20210905T173901_R098_T13TFF_20210906T065203,"BoundingBox(left=672465.0, bottom=4546115.0, right=677555.0, top=4551205.0)",32613,41.07037112246292,-102.91689873225687,20210905T173901
Hard_Negative_S2A_MSIL2A_20210827T141051_R110_T20JNN_20210828T004748_-29.08_-62.11_image_l2a.tif,S2A_MSIL2A_20210827T141051_R110_T20JNN_20210828T004748,"BoundingBox(left=584035.0, bottom=6780195.0, right=589125.0, top=6785285.0)",32720,-29.08075860839814,-62.110408490104106,20210827T141051
Hard_Negative_S2B_MSIL2A_20221105T124909_R109_T16CDT_20221106T103745_-79.17_-87.11_image_l2a.tif,S2B_MSIL2A_20221105T124909_R109_T16CDT_20221106T103745,"BoundingBox(left=495075.0, bottom=1208635.0, right=500165.0, top=1213725.0)",32716,-79.16881314087404,-87.11368741386457,20221105T124909
Hard_Negative_S2A_MSIL2A_20211224T110451_R094_T29RPJ_20230126T022139_26.09_-7.91_image_l2a.tif,S2A_MSIL2A_20211224T110451_R094_T29RPJ_20230126T022139,"BoundingBox(left=606435.0, bottom=2883575.0, right=611525.0, top=2888665.0)",32629,26.09011843855172,-7.910248519215785,20211224T110451
Hard_Negative_S2A_MSIL2A_20230328T233811_R087_T57KVS_20240830T063719_-21.02_158.58_image_l2a.tif,S2A_MSIL2A_20230328T233811_R087_T57KVS_20240830T063719,"BoundingBox(left=453375.0, bottom=7673155.0, right=458465.0, top=7678245.0)",32757,-21.01891741462082,158.57580919631286,20230328T233811
Hard_Negative_S2B_MSIL2A_20200709T081609_R121_T39VVL_20200912T150942_63.24_50.28_image_l2a.tif,S2B_MSIL2A_20200709T081609_R121_T39VVL_20200912T150942,"BoundingBox(left=461475.0, bottom=7010235.0, right=466565.0, top=7015325.0)",32639,63.24222963164402,50.28367790724502,20200709T081609
Hard_Negative_S2A_MSIL2A_20221219T042201_R090_T46REQ_20221219T174801_26.99_93.50_image_l2a.tif,S2A_MSIL2A_20221219T042201_R090_T46REQ_20221219T174801,"BoundingBox(left=546755.0, bottom=2983155.0, right=551845.0, top=2988245.0)",32646,26.992483527846662,93.49686822890116,20221219T042201
Hard_Negative_S2A_MSIL2A_20230519T052651_R105_T42PZU_20240903T210209_12.36_71.92_image_l2a.tif,S2A_MSIL2A_20230519T052651_R105_T42PZU_20240903T210209,"BoundingBox(left=814675.0, bottom=1365895.0, right=819765.0, top=1370985.0)",32642,12.363144805255384,71.91685584158643,20230519T052651
Hard_Negative_S2B_MSIL2A_20231206T091249_R050_T33PYS_20241029T125730_14.45_17.55_image_l2a.tif,S2B_MSIL2A_20231206T091249_R050_T33PYS_20241029T125730,"BoundingBox(left=772855.0, bottom=1596365.0, right=777945.0, top=1601455.0)",32633,14.448935879711893,17.55451238163536,20231206T091249
Hard_Negative_S2B_MSIL2A_20221124T131909_R095_T16CDU_20221125T231818_-77.94_-87.56_image_l2a.tif,S2B_MSIL2A_20221124T131909_R095_T16CDU_20221125T231818,"BoundingBox(left=484465.0, bottom=1345595.0, right=489555.0, top=1350685.0)",32716,-77.94109640542209,-87.5571963414177,20221124T131909
Hard_Negative_S2A_MSIL2A_20211208T005711_R002_T53JQN_20211208T172746_-24.79_137.39_image_l2a.tif,S2A_MSIL2A_20211208T005711_R002_T53JQN_20211208T172746,"BoundingBox(left=738715.0, bottom=7254075.0, right=743805.0, top=7259165.0)",32753,-24.786185733651514,137.3862904449513,20211208T005711
Hard_Negative_S2A_MSIL2A_20180516T031541_R118_T52WEB_20201012T102740_68.60_129.13_image_l2a.tif,S2A_MSIL2A_20180516T031541_R118_T52WEB_20201012T102740,"BoundingBox(left=502685.0, bottom=7607535.0, right=507775.0, top=7612625.0)",32652,68.60279692407474,129.12851782016256,20180516T031541
Hard_Negative_S2B_MSIL2A_20190519T002719_R016_T54JXL_20201006T160838_-30.79_142.39_image_l2a.tif,S2B_MSIL2A_20190519T002719_R016_T54JXL_20201006T160838,"BoundingBox(left=630375.0, bottom=6590185.0, right=635465.0, top=6595275.0)",32754,-30.791043753209294,142.38924817526038,20190519T002719
Hard_Negative_S2B_MSIL2A_20210828T022549_R046_T50NNN_20210828T110748_6.50_117.28_image_l2a.tif,S2B_MSIL2A_20210828T022549_R046_T50NNN_20210828T110748,"BoundingBox(left=527905.0, bottom=716465.0, right=532995.0, top=721555.0)",32650,6.504753601748732,117.27540766270246,20210828T022549
Hard_Negative_S2B_MSIL2A_20200925T174009_R098_T13SEU_20200926T215929_34.46_-104.06_image_l2a.tif,S2B_MSIL2A_20200925T174009_R098_T13SEU_20200926T215929,"BoundingBox(left=583435.0, bottom=3810895.0, right=588525.0, top=3815985.0)",32613,34.45892192352342,-104.06389822055056,20200925T174009
Hard_Negative_S2B_MSIL2A_20210312T121649_R066_T26PQB_20210312T224317_14.91_-24.34_image_l2a.tif,S2B_MSIL2A_20210312T121649_R066_T26PQB_20210312T224317,"BoundingBox(left=783955.0, bottom=1647265.0, right=789045.0, top=1652355.0)",32626,14.907509849262977,-24.337045691200238,20210312T121649
Hard_Negative_S2A_MSIL2A_20190131T031951_R118_T48QWD_20201008T060609_16.66_105.69_image_l2a.tif,S2A_MSIL2A_20190131T031951_R118_T48QWD_20201008T060609,"BoundingBox(left=571225.0, bottom=1839915.0, right=576315.0, top=1845005.0)",32648,16.66351634771015,105.69181149686794,20190131T031951
Hard_Negative_S2B_MSIL2A_20230106T093259_R136_T33PUR_20240809T145250_13.60_13.70_image_l2a.tif,S2B_MSIL2A_20230106T093259_R136_T33PUR_20240809T145250,"BoundingBox(left=357315.0, bottom=1501795.0, right=362405.0, top=1506885.0)",32633,13.604324033051192,13.704578989638975,20230106T093259
Hard_Negative_S2B_MSIL2A_20190121T145259_R053_T13CDQ_20201008T033159_-76.83_-104.92_image_l2a.tif,S2B_MSIL2A_20190121T145259_R053_T13CDQ_20201008T033159,"BoundingBox(left=499515.0, bottom=1470195.0, right=504605.0, top=1475285.0)",32713,-76.82510577638925,-104.91889735059985,20190121T145259
Hard_Negative_S2A_MSIL2A_20220115T151711_R125_T19PDN_20220116T021457_10.90_-69.63_image_l2a.tif,S2A_MSIL2A_20220115T151711_R125_T19PDN_20220116T021457,"BoundingBox(left=428685.0, bottom=1202535.0, right=433775.0, top=1207625.0)",32619,10.900778411734123,-69.62928960265853,20220115T151711
Hard_Negative_S2A_MSIL2A_20210426T102021_R065_T31RFQ_20210523T180220_31.14_5.12_image_l2a.tif,S2A_MSIL2A_20210426T102021_R065_T31RFQ_20210523T180220,"BoundingBox(left=699665.0, bottom=3444235.0, right=704755.0, top=3449325.0)",32631,31.137529931621344,5.120964712695609,20210426T102021
Hard_Negative_S2B_MSIL2A_20231020T055849_R091_T44VMH_20231020T212411_56.49_80.19_image_l2a.tif,S2B_MSIL2A_20231020T055849_R091_T44VMH_20231020T212411,"BoundingBox(left=447655.0, bottom=6257915.0, right=452745.0, top=6263005.0)",32644,56.48594630104861,80.19129958709203,20231020T055849
Hard_Negative_S2B_MSIL2A_20190126T122209_R123_T20CNC_20201008T045503_-74.41_-62.87_image_l2a.tif,S2B_MSIL2A_20190126T122209_R123_T20CNC_20201008T045503,"BoundingBox(left=501465.0, bottom=1739505.0, right=506555.0, top=1744595.0)",32720,-74.41146677369505,-62.866193759749706,20190126T122209
Hard_Negative_S2A_MSIL2A_20190103T090351_R007_T33NYD_20201007T222333_3.15_17.56_image_l2a.tif,S2A_MSIL2A_20190103T090351_R007_T33NYD_20201007T222333,"BoundingBox(left=781755.0, bottom=346155.0, right=786845.0, top=351245.0)",32633,3.1516083263364614,17.55792630453304,20190103T090351
Hard_Negative_S2B_MSIL2A_20220217T041829_R090_T48VXP_20220224T100713_61.51_107.12_image_l2a.tif,S2B_MSIL2A_20220217T041829_R090_T48VXP_20220224T100713,"BoundingBox(left=610085.0, bottom=6818635.0, right=615175.0, top=6823725.0)",32648,61.507799252334244,107.11659583826629,20220217T041829
Hard_Negative_S2A_MSIL2A_20220309T020451_R017_T50HNJ_20220309T125148_-33.21_117.98_image_l2a.tif,S2A_MSIL2A_20220309T020451_R017_T50HNJ_20220309T125148,"BoundingBox(left=588505.0, bottom=6323015.0, right=593595.0, top=6328105.0)",32750,-33.205008417931694,117.97692781730152,20220309T020451
Hard_Negative_S2B_MSIL2A_20180118T133219_R081_T22KEE_20201025T210737_-18.52_-50.11_image_l2a.tif,S2B_MSIL2A_20180118T133219_R081_T22KEE_20201025T210737,"BoundingBox(left=591715.0, bottom=7949755.0, right=596805.0, top=7954845.0)",32722,-18.517728308479484,-50.106984210813664,20180118T133219
Hard_Negative_S2B_MSIL2A_20220520T063629_R120_T41SLR_20220521T173141_31.88_61.49_image_l2a.tif,S2B_MSIL2A_20220520T063629_R120_T41SLR_20220521T173141,"BoundingBox(left=354165.0, bottom=3525135.0, right=359255.0, top=3530225.0)",32641,31.875890524811012,61.48509594761191,20220520T063629
Hard_Negative_S2A_MSIL2A_20220321T054641_R048_T42QWM_20240522T053656_23.81_69.74_image_l2a.tif,S2A_MSIL2A_20220321T054641_R048_T42QWM_20240522T053656,"BoundingBox(left=572575.0, bottom=2630495.0, right=577665.0, top=2635585.0)",32642,23.806870092597862,69.73745684512545,20220321T054641
Hard_Negative_S2A_MSIL2A_20200729T142741_R053_T20MQA_20200818T001808_-4.06_-60.62_image_l2a.tif,S2A_MSIL2A_20200729T142741_R053_T20MQA_20200818T001808,"BoundingBox(left=761275.0, bottom=9548675.0, right=766365.0, top=9553765.0)",32720,-4.056682671717725,-60.62387950081171,20200729T142741
Hard_Negative_S2A_MSIL2A_20220620T065631_R063_T40SDD_20220621T153242_34.95_56.43_image_l2a.tif,S2A_MSIL2A_20220620T065631_R063_T40SDD_20220621T153242,"BoundingBox(left=444985.0, bottom=3865025.0, right=450075.0, top=3870115.0)",32640,34.94928439046265,56.42534661244779,20220620T065631
Hard_Negative_S2A_MSIL2A_20220825T085611_R007_T35RLP_20240720T132355_30.00_25.42_image_l2a.tif,S2A_MSIL2A_20220825T085611_R007_T35RLP_20240720T132355,"BoundingBox(left=345465.0, bottom=3317325.0, right=350555.0, top=3322415.0)",32635,30.000353518255974,25.424208165251848,20220825T085611
Hard_Negative_S2A_MSIL2A_20211129T071201_R020_T38KMA_20211129T235414_-22.49_44.65_image_l2a.tif,S2A_MSIL2A_20211129T071201_R020_T38KMA_20211129T235414,"BoundingBox(left=461745.0, bottom=7510175.0, right=466835.0, top=7515265.0)",32738,-22.491569109959187,44.65283097542722,20211129T071201
Hard_Negative_S2A_MSIL2A_20220105T082331_R121_T35NPC_20220106T004631_2.05_28.00_image_l2a.tif,S2A_MSIL2A_20220105T082331_R121_T35NPC_20220106T004631,"BoundingBox(left=608845.0, bottom=224005.0, right=613935.0, top=229095.0)",32635,2.0493451103447877,28.00161928597437,20220105T082331
Hard_Negative_S2A_MSIL2A_20220120T010731_R045_T53JLH_20220120T155825_-29.07_133.79_image_l2a.tif,S2A_MSIL2A_20220120T010731_R045_T53JLH_20220120T155825,"BoundingBox(left=379275.0, bottom=6781415.0, right=384365.0, top=6786505.0)",32753,-29.067204746557245,133.78590845754002,20220120T010731
Hard_Negative_S2A_MSIL2A_20190108T150721_R082_T19NDB_20201007T234843_1.46_-69.27_image_l2a.tif,S2A_MSIL2A_20190108T150721_R082_T19NDB_20201007T234843,"BoundingBox(left=467285.0, bottom=159415.0, right=472375.0, top=164505.0)",32619,1.4652831226140317,-69.2712174827457,20190108T150721
Hard_Negative_S2A_MSIL2A_20200822T141051_R110_T21MWN_20200825T131924_-6.41_-56.41_image_l2a.tif,S2A_MSIL2A_20200822T141051_R110_T21MWN_20200825T131924,"BoundingBox(left=562225.0, bottom=9289155.0, right=567315.0, top=9294245.0)",32721,-6.407610006950737,-56.41430276460014,20200822T141051
Hard_Negative_S2A_MSIL2A_20230226T113321_R080_T28QCK_20230228T193355_22.07_-16.13_image_l2a.tif,S2A_MSIL2A_20230226T113321_R080_T28QCK_20230228T193355,"BoundingBox(left=380895.0, bottom=2438195.0, right=385985.0, top=2443285.0)",32628,22.0675881566553,-16.129716512248564,20230226T113321
Hard_Negative_S2A_MSIL2A_20200727T135121_R024_T22MCB_20200817T175611_-3.17_-52.02_image_l2a.tif,S2A_MSIL2A_20200727T135121_R024_T22MCB_20200817T175611,"BoundingBox(left=384345.0, bottom=9646755.0, right=389435.0, top=9651845.0)",32722,-3.172357152479267,-52.017987573641896,20200727T135121
Hard_Negative_S2A_MSIL2A_20210410T031531_R118_T51WXQ_20210411T071921_66.68_125.59_image_l2a.tif,S2A_MSIL2A_20210410T031531_R118_T51WXQ_20210411T071921,"BoundingBox(left=611655.0, bottom=7395905.0, right=616745.0, top=7400995.0)",32651,66.68335031430708,125.58618871789972,20210410T031531
Hard_Negative_S2A_MSIL2A_20211125T023251_R103_T49JGJ_20211125T140728_-28.80_113.75_image_l2a.tif,S2A_MSIL2A_20211125T023251_R103_T49JGJ_20211125T140728,"BoundingBox(left=765575.0, bottom=6808315.0, right=770665.0, top=6813405.0)",32749,-28.80193157777702,113.74699025414657,20211125T023251
Hard_Negative_S2A_MSIL2A_20210630T110621_R137_T32VMR_20210701T053305_63.10_7.72_image_l2a.tif,S2A_MSIL2A_20210630T110621_R137_T32VMR_20210701T053305,"BoundingBox(left=432775.0, bottom=6994355.0, right=437865.0, top=6999445.0)",32632,63.095719950022826,7.718765941160482,20210630T110621
Hard_Negative_S2A_MSIL2A_20210606T044701_R076_T45QUD_20210609T171835_21.22_85.29_image_l2a.tif,S2A_MSIL2A_20210606T044701_R076_T45QUD_20210609T171835,"BoundingBox(left=319915.0, bottom=2345035.0, right=325005.0, top=2350125.0)",32645,21.221123500008176,85.28936796020852,20210606T044701
Hard_Negative_S2A_MSIL2A_20200416T093031_R136_T33RWN_20200923T174209_29.74_15.99_image_l2a.tif,S2A_MSIL2A_20200416T093031_R136_T33RWN_20200923T174209,"BoundingBox(left=593535.0, bottom=3287755.0, right=598625.0, top=3292845.0)",32633,29.739193520901466,15.99358045091903,20200416T093031
Hard_Negative_S2B_MSIL2A_20230121T070209_R063_T39QWD_20240807T192603_21.57_51.54_image_l2a.tif,S2B_MSIL2A_20230121T070209_R063_T39QWD_20240807T192603,"BoundingBox(left=553365.0, bottom=2383165.0, right=558455.0, top=2388255.0)",32639,21.573430541137327,51.540051987652404,20230121T070209
Hard_Negative_S2A_MSIL2A_20230223T112111_R037_T30UWF_20230224T175724_54.29_-1.45_image_l2a.tif,S2A_MSIL2A_20230223T112111_R037_T30UWF_20230224T175724,"BoundingBox(left=597995.0, bottom=6014395.0, right=603085.0, top=6019485.0)",32630,54.2904567031021,-1.4553447760915676,20230223T112111
Hard_Negative_S2B_MSIL2A_20230409T112119_R037_T28QFL_20230409T161350_23.20_-13.19_image_l2a.tif,S2B_MSIL2A_20230409T112119_R037_T28QFL_20230409T161350,"BoundingBox(left=682645.0, bottom=2564265.0, right=687735.0, top=2569355.0)",32628,23.199977808263462,-13.190470314916961,20230409T112119
Hard_Negative_S2A_MSIL2A_20220312T051651_R062_T43NCG_20240527T175129_5.68_73.29_image_l2a.tif,S2A_MSIL2A_20220312T051651_R062_T43NCG_20240527T175129,"BoundingBox(left=307615.0, bottom=625695.0, right=312705.0, top=630785.0)",32643,5.681153637059598,73.28584248408202,20220312T051651
Hard_Negative_S2A_MSIL2A_20210901T013711_R031_T51JXG_20210901T101736_-30.56_125.02_image_l2a.tif,S2A_MSIL2A_20210901T013711_R031_T51JXG_20210901T101736,"BoundingBox(left=691095.0, bottom=6614825.0, right=696185.0, top=6619915.0)",32751,-30.560487986242094,125.01896651718451,20210901T013711
Hard_Negative_S2A_MSIL2A_20210831T020451_R017_T51LWG_20210831T100836_-11.96_123.35_image_l2a.tif,S2A_MSIL2A_20210831T020451_R017_T51LWG_20210831T100836,"BoundingBox(left=535775.0, bottom=8675075.0, right=540865.0, top=8680165.0)",32751,-11.962034600073725,123.35196546339908,20210831T020451
Hard_Negative_S2A_MSIL2A_20230504T025521_R032_T53WMS_20230504T134841_68.75_134.99_image_l2a.tif,S2A_MSIL2A_20230504T025521_R032_T53WMS_20230504T134841,"BoundingBox(left=496895.0, bottom=7624355.0, right=501985.0, top=7629445.0)",32653,68.7537004101753,134.98613860340578,20230504T025521
Hard_Negative_S2A_MSIL2A_20220531T101611_R065_T31REQ_20240627T212715_31.54_3.90_image_l2a.tif,S2A_MSIL2A_20220531T101611_R065_T31REQ_20240627T212715,"BoundingBox(left=582915.0, bottom=3486925.0, right=588005.0, top=3492015.0)",32631,31.537009089431958,3.9002614111882483,20220531T101611
Hard_Negative_S2A_MSIL2A_20190923T022551_R046_T50NNL_20201004T161845_5.32_117.28_image_l2a.tif,S2A_MSIL2A_20190923T022551_R046_T50NNL_20201004T161845,"BoundingBox(left=528335.0, bottom=585935.0, right=533425.0, top=591025.0)",32650,5.3239461186725805,117.27870486607517,20190923T022551
Hard_Negative_S2B_MSIL2A_20210909T080559_R078_T35KKT_20210909T195424_-20.80_25.06_image_l2a.tif,S2B_MSIL2A_20210909T080559_R078_T35KKT_20210909T195424,"BoundingBox(left=295945.0, bottom=7695855.0, right=301035.0, top=7700945.0)",32735,-20.80340611291978,25.06387460963145,20210909T080559
Hard_Negative_S2A_MSIL2A_20220721T044711_R076_T46UFA_20240715T071458_49.96_94.59_image_l2a.tif,S2A_MSIL2A_20220721T044711_R076_T46UFA_20240715T071458,"BoundingBox(left=611265.0, bottom=5532695.0, right=616355.0, top=5537785.0)",32646,49.958646278393545,94.58672855315982,20220721T044711
Hard_Negative_S2A_MSIL2A_20221029T044921_R076_T45SWR_20240822T011409_32.12_87.32_image_l2a.tif,S2A_MSIL2A_20221029T044921_R076_T45SWR_20240822T011409,"BoundingBox(left=528065.0, bottom=3551185.0, right=533155.0, top=3556275.0)",32645,32.119518998298844,87.32449611636599,20221029T044921
Hard_Negative_S2A_MSIL2A_20180416T151711_R125_T18LVQ_20201012T225850_-9.34_-75.83_image_l2a.tif,S2A_MSIL2A_20180416T151711_R125_T18LVQ_20201012T225850,"BoundingBox(left=405735.0, bottom=8964975.0, right=410825.0, top=8970065.0)",32718,-9.339361918177056,-75.83523699969912,20180416T151711
Hard_Negative_S2A_MSIL2A_20200421T003711_R059_T54HUG_20200921T111443_-34.91_139.24_image_l2a.tif,S2A_MSIL2A_20200421T003711_R059_T54HUG_20200921T111443,"BoundingBox(left=336885.0, bottom=6133515.0, right=341975.0, top=6138605.0)",32754,-34.905200204970726,139.2424735041419,20200421T003711
Hard_Negative_S2A_MSIL2A_20211123T095331_R079_T32QMG_20211123T192728_19.69_8.77_image_l2a.tif,S2A_MSIL2A_20211123T095331_R079_T32QMG_20211123T192728,"BoundingBox(left=472815.0, bottom=2174395.0, right=477905.0, top=2179485.0)",32632,19.687699962979863,8.764904915996091,20211123T095331
Hard_Negative_S2A_MSIL2A_20230408T105621_R094_T30SVH_20240829T173322_38.82_-3.33_image_l2a.tif,S2A_MSIL2A_20230408T105621_R094_T30SVH_20240829T173322,"BoundingBox(left=469195.0, bottom=4294135.0, right=474285.0, top=4299225.0)",32630,38.81844253085688,-3.325537775960667,20230408T105621
Hard_Negative_S2A_MSIL2A_20181030T014701_R074_T52MED_20201009T164115_-1.20_129.38_image_l2a.tif,S2A_MSIL2A_20181030T014701_R074_T52MED_20201009T164115,"BoundingBox(left=540135.0, bottom=9865215.0, right=545225.0, top=9870305.0)",32752,-1.1963879895260205,129.38363476496082,20181030T014701
Hard_Negative_S2B_MSIL2A_20220122T090159_R007_T33NYB_20220123T071846_1.55_17.25_image_l2a.tif,S2B_MSIL2A_20220122T090159_R007_T33NYB_20220123T071846,"BoundingBox(left=747665.0, bottom=168535.0, right=752755.0, top=173625.0)",32633,1.5466113939627268,17.248807671768716,20220122T090159
Hard_Negative_S2B_MSIL2A_20230720T083609_R064_T35RQJ_20230720T142039_26.12_29.52_image_l2a.tif,S2B_MSIL2A_20230720T083609_R064_T35RQJ_20230720T142039,"BoundingBox(left=749355.0, bottom=2889095.0, right=754445.0, top=2894185.0)",32635,26.12205333901795,29.519158918968493,20230720T083609
Hard_Negative_S2A_MSIL2A_20210428T023551_R089_T50PKS_20210428T145725_10.69_114.32_image_l2a.tif,S2A_MSIL2A_20210428T023551_R089_T50PKS_20210428T145725,"BoundingBox(left=204425.0, bottom=1180235.0, right=209515.0, top=1185325.0)",32650,10.68824482756304,114.32134181819691,20210428T023551
Hard_Negative_S2A_MSIL2A_20201109T042011_R090_T46RGQ_20201110T232230_26.88_95.25_image_l2a.tif,S2A_MSIL2A_20201109T042011_R090_T46RGQ_20201110T232230,"BoundingBox(left=720845.0, bottom=2972815.0, right=725935.0, top=2977905.0)",32646,26.8820998669513,95.2488910402989,20201109T042011
Hard_Negative_S2A_MSIL2A_20230619T195901_R128_T08UPG_20240913T222021_55.38_-132.91_image_l2a.tif,S2A_MSIL2A_20230619T195901_R128_T08UPG_20240913T222021,"BoundingBox(left=629565.0, bottom=6136785.0, right=634655.0, top=6141875.0)",32608,55.382441809735724,-132.91469975640143,20230619T195901
Hard_Negative_S2A_MSIL2A_20220405T100031_R122_T32RMN_20240607T084710_24.54_8.71_image_l2a.tif,S2A_MSIL2A_20220405T100031_R122_T32RMN_20240607T084710,"BoundingBox(left=467775.0, bottom=2711495.0, right=472865.0, top=2716585.0)",32632,24.53994650526399,8.706953668491703,20220405T100031
Hard_Negative_S2A_MSIL2A_20220823T151721_R125_T18LWR_20240721T062625_-9.06_-74.56_image_l2a.tif,S2A_MSIL2A_20220823T151721_R125_T18LWR_20240721T062625,"BoundingBox(left=545815.0, bottom=8996335.0, right=550905.0, top=9001425.0)",32718,-9.056427855075565,-74.55995386089052,20220823T151721
Hard_Negative_S2B_MSIL2A_20230904T141719_R010_T21MVU_20230904T201539_-1.57_-57.70_image_l2a.tif,S2B_MSIL2A_20230904T141719_R010_T21MVU_20230904T201539,"BoundingBox(left=420015.0, bottom=9824255.0, right=425105.0, top=9829345.0)",32721,-1.566874402298041,-57.696175329890636,20230904T141719
Hard_Negative_S2B_MSIL2A_20210808T154809_R054_T20WNU_20210812T225333_65.95_-62.22_image_l2a.tif,S2B_MSIL2A_20210808T154809_R054_T20WNU_20210812T225333,"BoundingBox(left=532675.0, bottom=7312205.0, right=537765.0, top=7317295.0)",32620,65.95174562905369,-62.22539672927426,20210808T154809
Hard_Negative_S2A_MSIL2A_20220602T073621_R092_T40VEQ_20220603T025619_62.91_58.57_image_l2a.tif,S2A_MSIL2A_20220602T073621_R092_T40VEQ_20220603T025619,"BoundingBox(left=577065.0, bottom=6974555.0, right=582155.0, top=6979645.0)",32640,62.91509649802906,58.56729189326282,20220602T073621
Hard_Negative_S2A_MSIL2A_20220307T074801_R135_T35KQP_20240525T112351_-23.61_29.24_image_l2a.tif,S2A_MSIL2A_20220307T074801_R135_T35KQP_20240525T112351,"BoundingBox(left=726085.0, bottom=7384955.0, right=731175.0, top=7390045.0)",32735,-23.60692625134054,29.240697119465537,20220307T074801
Hard_Negative_S2A_MSIL2A_20220529T075621_R035_T36LTN_20220530T000421_-11.10_31.02_image_l2a.tif,S2A_MSIL2A_20220529T075621_R035_T36LTN_20220530T000421,"BoundingBox(left=280785.0, bottom=8769655.0, right=285875.0, top=8774745.0)",32736,-11.100371558641779,31.01633217189847,20220529T075621
Hard_Negative_S2A_MSIL2A_20221115T094251_R036_T32PNC_20240804T074603_15.74_9.71_image_l2a.tif,S2A_MSIL2A_20221115T094251_R036_T32PNC_20240804T074603,"BoundingBox(left=573715.0, bottom=1737325.0, right=578805.0, top=1742415.0)",32632,15.736071095818913,9.71182646535034,20221115T094251
Hard_Negative_S2B_MSIL2A_20200702T150759_R025_T23WNV_20200825T000151_71.92_-42.94_image_l2a.tif,S2B_MSIL2A_20200702T150759_R025_T23WNV_20200825T000151,"BoundingBox(left=568815.0, bottom=7979145.0, right=573905.0, top=7984235.0)",32623,71.92411611576874,-42.93896297846311,20200702T150759
Hard_Negative_S2A_MSIL2A_20220726T053651_R005_T44UND_20240713T075305_53.18_81.25_image_l2a.tif,S2A_MSIL2A_20220726T053651_R005_T44UND_20240713T075305,"BoundingBox(left=514275.0, bottom=5890175.0, right=519365.0, top=5895265.0)",32644,53.18355431247778,81.25172119558125,20220726T053651
Hard_Negative_S2A_MSIL2A_20190518T014701_R074_T51KXQ_20201006T153318_-22.91_124.54_image_l2a.tif,S2A_MSIL2A_20190518T014701_R074_T51KXQ_20201006T153318,"BoundingBox(left=655705.0, bottom=7462575.0, right=660795.0, top=7467665.0)",32751,-22.914454605293436,124.5430832872591,20190518T014701
Hard_Negative_S2B_MSIL2A_20241223T062129_R091_T40KGG_20241223T075250_-16.44_59.62_image_l2a.tif,S2B_MSIL2A_20241223T062129_R091_T40KGG_20241223T075250,"BoundingBox(left=777685.0, bottom=8178175.0, right=782775.0, top=8183265.0)",32740,-16.438700003447572,59.624209151126706,20241223T062129
Hard_Negative_S2A_MSIL2A_20210621T222531_R015_T04WEB_20210624T195948_68.56_-156.84_image_l2a.tif,S2A_MSIL2A_20210621T222531_R015_T04WEB_20210624T195948,"BoundingBox(left=585685.0, bottom=7603815.0, right=590775.0, top=7608905.0)",32604,68.55557957817712,-156.83708321190778,20210621T222531
Hard_Negative_S2B_MSIL2A_20220713T112119_R037_T28QFL_20220714T111929_23.15_-13.47_image_l2a.tif,S2B_MSIL2A_20220713T112119_R037_T28QFL_20220714T111929,"BoundingBox(left=654395.0, bottom=2558015.0, right=659485.0, top=2563105.0)",32628,23.14647289376218,-13.467065919303876,20220713T112119
Hard_Negative_S2B_MSIL2A_20231206T160509_R054_T17RPH_20241021T102801_25.21_-79.11_image_l2a.tif,S2B_MSIL2A_20231206T160509_R054_T17RPH_20241021T102801,"BoundingBox(left=687775.0, bottom=2786675.0, right=692865.0, top=2791765.0)",32617,25.207130158124876,-79.11099285134235,20231206T160509
Hard_Negative_S2A_MSIL2A_20230517T162831_R083_T16SFJ_20230518T150730_39.18_-85.57_image_l2a.tif,S2A_MSIL2A_20230517T162831_R083_T16SFJ_20230518T150730,"BoundingBox(left=621305.0, bottom=4334915.0, right=626395.0, top=4340005.0)",32616,39.17755656751514,-85.56615558907973,20230517T162831
Hard_Negative_S2A_MSIL2A_20220501T051701_R062_T43NCD_20220501T224346_3.51_73.30_image_l2a.tif,S2A_MSIL2A_20220501T051701_R062_T43NCD_20220501T224346,"BoundingBox(left=308995.0, bottom=385375.0, right=314085.0, top=390465.0)",32643,3.5080449560888276,73.3034465598378,20220501T051701
Hard_Negative_S2A_MSIL2A_20180103T163651_R083_T18VUJ_20201014T030211_57.44_-76.75_image_l2a.tif,S2A_MSIL2A_20180103T163651_R083_T18VUJ_20201014T030211,"BoundingBox(left=392245.0, bottom=6365335.0, right=397335.0, top=6370425.0)",32618,57.441403908512285,-76.75285753362725,20180103T163651
Hard_Negative_S2B_MSIL2A_20220206T000729_R073_T56MPV_20240521T072321_-5.03_154.55_image_l2a.tif,S2B_MSIL2A_20220206T000729_R073_T56MPV_20240521T072321,"BoundingBox(left=669665.0, bottom=9441415.0, right=674755.0, top=9446505.0)",32756,-5.028687062409919,154.5533598391076,20220206T000729
Hard_Negative_S2A_MSIL2A_20210410T081601_R121_T36QWL_20210523T110612_22.67_33.96_image_l2a.tif,S2A_MSIL2A_20210410T081601_R121_T36QWL_20210523T110612,"BoundingBox(left=595645.0, bottom=2505215.0, right=600735.0, top=2510305.0)",32636,22.674105397971744,33.9558174242786,20210410T081601
Hard_Negative_S2B_MSIL2A_20190611T083609_R064_T34MFV_20201006T005904_-5.12_22.03_image_l2a.tif,S2B_MSIL2A_20190611T083609_R064_T34MFV_20201006T005904,"BoundingBox(left=611315.0, bottom=9431715.0, right=616405.0, top=9436805.0)",32734,-5.11746680008353,22.02724501415532,20190611T083609
Hard_Negative_S2A_MSIL2A_20230422T021531_R003_T50NQM_20240903T021717_5.80_119.72_image_l2a.tif,S2A_MSIL2A_20230422T021531_R003_T50NQM_20240903T021717,"BoundingBox(left=798265.0, bottom=639335.0, right=803355.0, top=644425.0)",32650,5.8005678879140445,119.71612071118952,20230422T021531
Hard_Negative_S2B_MSIL2A_20220820T141719_R010_T20LQR_20240703T112839_-8.41_-60.85_image_l2a.tif,S2B_MSIL2A_20220820T141719_R010_T20LQR_20240703T112839,"BoundingBox(left=734225.0, bottom=9067495.0, right=739315.0, top=9072585.0)",32720,-8.407157135926852,-60.849733452965665,20220820T141719
Hard_Negative_S2B_MSIL2A_20220809T092559_R136_T32MME_20240711T204054_-0.92_8.64_image_l2a.tif,S2B_MSIL2A_20220809T092559_R136_T32MME_20240711T204054,"BoundingBox(left=457555.0, bottom=9895355.0, right=462645.0, top=9900445.0)",32732,-0.9237116946928867,8.641384690283743,20220809T092559
Hard_Negative_S2B_MSIL2A_20180827T110029_R094_T29QMC_20201027T051906_19.88_-9.60_image_l2a.tif,S2B_MSIL2A_20180827T110029_R094_T29QMC_20201027T051906,"BoundingBox(left=434845.0, bottom=2195765.0, right=439935.0, top=2200855.0)",32629,19.879968419442577,-9.598079127621618,20180827T110029
Hard_Negative_S2B_MSIL2A_20180107T070249_R063_T39QYF_20201014T040006_22.58_53.27_image_l2a.tif,S2B_MSIL2A_20180107T070249_R063_T39QYF_20201014T040006,"BoundingBox(left=730495.0, bottom=2495875.0, right=735585.0, top=2500965.0)",32639,22.576589374575263,53.26654617932725,20180107T070249
Hard_Negative_S2B_MSIL2A_20200517T162839_R083_T19WER_20200910T011700_68.34_-66.99_image_l2a.tif,S2B_MSIL2A_20200517T162839_R083_T19WER_20200910T011700,"BoundingBox(left=580155.0, bottom=7579935.0, right=585245.0, top=7585025.0)",32619,68.34322435275763,-66.99161561762679,20200517T162839
Hard_Negative_S2A_MSIL2A_20230419T102601_R108_T32UPE_20240905T080829_53.79_10.78_image_l2a.tif,S2A_MSIL2A_20230419T102601_R108_T32UPE_20240905T080829,"BoundingBox(left=614615.0, bottom=5959275.0, right=619705.0, top=5964365.0)",32632,53.79174849540449,10.778593012403276,20230419T102601
Hard_Negative_S2B_MSIL2A_20220715T083609_R064_T35QND_20220715T200208_21.20_27.09_image_l2a.tif,S2B_MSIL2A_20220715T083609_R064_T35QND_20220715T200208,"BoundingBox(left=506995.0, bottom=2341795.0, right=512085.0, top=2346885.0)",32635,21.200493218080336,27.091920674200363,20220715T083609
Hard_Negative_S2A_MSIL2A_20210731T005711_R002_T53JPF_20210801T050903_-31.09_136.13_image_l2a.tif,S2A_MSIL2A_20210731T005711_R002_T53JPF_20210801T050903,"BoundingBox(left=605475.0, bottom=6557555.0, right=610565.0, top=6562645.0)",32753,-31.087944229515557,136.13251404952933,20210731T005711
Hard_Negative_S2A_MSIL2A_20211123T081241_R078_T37RCN_20211123T174636_29.16_37.20_image_l2a.tif,S2A_MSIL2A_20211123T081241_R078_T37RCN_20211123T174636,"BoundingBox(left=322365.0, bottom=3224235.0, right=327455.0, top=3229325.0)",32637,29.157534735751245,37.19977440503715,20211123T081241
Hard_Negative_S2A_MSIL2A_20201006T145731_R039_T19MDR_20201010T070655_-3.80_-69.38_image_l2a.tif,S2A_MSIL2A_20201006T145731_R039_T19MDR_20201010T070655,"BoundingBox(left=455105.0, bottom=9577815.0, right=460195.0, top=9582905.0)",32719,-3.7964742817689334,-69.38141797889335,20201006T145731
Hard_Negative_S2B_MSIL2A_20220114T133939_R038_T19DDC_20220114T213245_-69.46_-69.13_image_l2a.tif,S2B_MSIL2A_20220114T133939_R038_T19DDC_20220114T213245,"BoundingBox(left=492235.0, bottom=2291465.0, right=497325.0, top=2296555.0)",32719,-69.46293576227245,-69.13339636351525,20220114T133939
Hard_Negative_S2A_MSIL2A_20180102T071331_R063_T39NTJ_20201014T024504_7.18_48.95_image_l2a.tif,S2A_MSIL2A_20180102T071331_R063_T39NTJ_20201014T024504,"BoundingBox(left=270595.0, bottom=791275.0, right=275685.0, top=796365.0)",32639,7.176964090596627,48.94570246810452,20180102T071331
